municipio,uf,latitude,longitude,nota_de_risco,nome,codigo_ibge
Abadia de Goiás,52,-16.7573,-49.4412,2.59,Abadia de Goiás,5200050
Abadia dos Dourados,31,-18.4831,-47.3916,2.77,Abadia dos Dourados,3100104
Abadiânia,52,-16.197,-48.7057,2.77,Abadiânia,5200100
Abaeté,31,-19.1551,-45.4444,2.22,Abaeté,3100203
Abaetetuba,15,-1.72183,-48.8788,2.25,Abaetetuba,1500107
Abaiara,23,-7.34588,-39.0416,4.61,Abaiara,2300101
Abaíra,29,-13.2488,-41.6619,2.85,Abaíra,2900108
Abaré,29,-8.72073,-39.1162,2.99,Abaré,2900207
Abatiá,41,-23.3049,-50.3133,1.55,Abatiá,4100103
Abdon Batista,42,-27.6126,-51.0233,6.49,Abdon Batista,4200051
Abel Figueiredo,15,-4.95333,-48.3933,2.97,Abel Figueiredo,1500131
Abelardo Luz,42,-26.5716,-52.3229,6.04,Abelardo Luz,4200101
Abre Campo,31,-20.2996,-42.4743,2.22,Abre Campo,3100302
Abreu e Lima,26,-7.90072,-34.8984,5.94,Abreu e Lima,2600054
Abreulândia,17,-9.62101,-49.1518,3.34,Abreulândia,1700251
Acaiaca,31,-20.359,-43.1439,2.22,Acaiaca,3100401
Açailândia,21,-4.94714,-47.5004,2.74,Açailândia,2100055
Acajutiba,29,-11.6575,-38.0197,2.32,Acajutiba,2900306
Acará,15,-1.95383,-48.1985,2.25,Acará,1500206
Acarape,23,-4.22083,-38.7055,7.32,Acarape,2300150
Acaraú,23,-2.88769,-40.1183,3.74,Acaraú,2300200
Acari,24,-6.4282,-36.6347,3.42,Acari,2400109
Acauã,22,-8.21954,-41.0831,3.54,Acauã,2200053
Aceguá,43,-31.8665,-54.1615,2.13,Aceguá,4300034
Acopiara,23,-6.08911,-39.448,3.37,Acopiara,2300309
Acorizal,51,-15.194,-56.3632,4.06,Acorizal,5100102
Acrelândia,12,-9.82581,-66.8972,7.77,Acrelândia,1200013
Acreúna,52,-17.396,-50.3749,1.96,Acreúna,5200134
Açu,24,-5.58362,-36.914,3.11,Açu,2400208
Açucena,31,-19.0671,-42.5419,2.07,Açucena,3100500
Adamantina,35,-21.682,-51.0737,1.87,Adamantina,3500105
Adelândia,52,-16.4127,-50.1657,1.84,Adelândia,5200159
Adolfo,35,-21.2325,-49.6451,2.36,Adolfo,3500204
Adrianópolis,41,-24.6606,-48.9922,3.09,Adrianópolis,4100202
Adustina,29,-10.5437,-38.1113,2.36,Adustina,2900355
Afogados da Ingazeira,26,-7.74312,-37.631,3.92,Afogados da Ingazeira,2600104
Afonso Bezerra,24,-5.49229,-36.5075,3.71,Afonso Bezerra,2400307
Afonso Cláudio,32,-20.0778,-41.1261,1.78,Afonso Cláudio,3200102
Afonso Cunha,21,-4.13631,-43.3275,3.22,Afonso Cunha,2100105
Afrânio,26,-8.51136,-41.0095,3.92,Afrânio,2600203
Afuá,15,-0.154874,-50.3861,2.96,Afuá,1500305
Agrestina,26,-8.45966,-35.9447,3.74,Agrestina,2600302
Agricolândia,22,-5.79676,-42.6664,3.66,Agricolândia,2200103
Agrolândia,42,-27.4087,-49.822,10.0,Agrolândia,4200200
Agronômica,42,-27.2662,-49.708,10.0,Agronômica,4200309
Água Azul do Norte,15,-6.79053,-50.4791,2.7,Água Azul do Norte,1500347
Água Boa,31,-17.9914,-42.3806,2.02,Água Boa,3100609
Água Boa,31,-17.9914,-42.3806,2.02,Água Boa,5100201
Água Boa,51,-14.051,-52.1601,2.74,Água Boa,3100609
Água Boa,51,-14.051,-52.1601,2.74,Água Boa,5100201
Água Branca,22,-5.88856,-42.637,3.66,Água Branca,2200202
Água Branca,22,-5.88856,-42.637,3.66,Água Branca,2500106
Água Branca,22,-5.88856,-42.637,3.66,Água Branca,2700102
Água Branca,25,-7.51144,-37.6357,3.63,Água Branca,2200202
Água Branca,25,-7.51144,-37.6357,3.63,Água Branca,2500106
Água Branca,25,-7.51144,-37.6357,3.63,Água Branca,2700102
Água Branca,27,-9.262,-37.938,2.54,Água Branca,2200202
Água Branca,27,-9.262,-37.938,2.54,Água Branca,2500106
Água Branca,27,-9.262,-37.938,2.54,Água Branca,2700102
Água Clara,50,-20.4452,-52.879,2.3,Água Clara,5000203
Água Comprida,31,-20.0576,-48.1069,2.16,Água Comprida,3100708
Água Doce,42,-26.9985,-51.5528,10.0,Água Doce,4200408
Água Doce do Maranhão,21,-2.84048,-42.1189,3.11,Água Doce do Maranhão,2100154
Água Doce do Norte,32,-18.5482,-40.9854,1.96,Água Doce do Norte,3200169
Água Fria,29,-11.8618,-38.7639,2.59,Água Fria,2900405
Água Fria de Goiás,52,-14.9778,-47.7823,3.28,Água Fria de Goiás,5200175
Água Limpa,52,-18.0771,-48.7603,3.11,Água Limpa,5200209
Água Nova,24,-6.20351,-38.2941,4.06,Água Nova,2400406
Água Preta,26,-8.70609,-35.5263,6.9,Água Preta,2600401
Água Santa,43,-28.1672,-52.031,3.22,Água Santa,4300059
Aguaí,35,-22.0572,-46.9735,1.76,Aguaí,3500303
Aguanil,31,-20.9439,-45.3915,1.67,Aguanil,3100807
Águas Belas,26,-9.11125,-37.1226,4.38,Águas Belas,2600500
Águas da Prata,35,-21.9319,-46.7176,1.5,Águas da Prata,3500402
Águas de Chapecó,42,-27.0754,-52.9808,4.51,Águas de Chapecó,4200507
Águas de Lindóia,35,-22.4733,-46.6314,1.47,Águas de Lindóia,3500501
Águas de Santa Bárbara,35,-22.8812,-49.2421,2.25,Águas de Santa Bárbara,3500550
Águas de São Pedro,35,-22.5977,-47.8734,2.54,Águas de São Pedro,3500600
Águas Formosas,31,-17.0802,-40.9384,2.16,Águas Formosas,3100906
Águas Frias,42,-26.8794,-52.8568,5.47,Águas Frias,4200556
Águas Lindas de Goiás,52,-15.7617,-48.2816,3.2,Águas Lindas de Goiás,5200258
Águas Mornas,42,-27.6963,-48.8243,10.0,Águas Mornas,4200606
Águas Vermelhas,31,-15.7431,-41.4571,2.56,Águas Vermelhas,3101003
Agudo,43,-29.6447,-53.2515,2.4,Agudo,4300109
Agudos,35,-22.4694,-48.9863,2.16,Agudos,3500709
Agudos do Sul,41,-25.9899,-49.3343,3.77,Agudos do Sul,4100301
Águia Branca,32,-18.9846,-40.7437,1.98,Águia Branca,3200136
Aguiar,25,-7.0918,-38.1681,3.66,Aguiar,2500205
Aguiarnópolis,17,-6.55409,-47.4702,2.39,Aguiarnópolis,1700301
Aimorés,31,-19.5007,-41.0746,1.41,Aimorés,3101102
Aiquara,29,-14.1269,-39.8937,1.96,Aiquara,2900603
Aiuaba,23,-6.57122,-40.1178,3.17,Aiuaba,2300408
Aiuruoca,31,-21.9736,-44.6042,1.3,Aiuruoca,3101201
Ajuricaba,43,-28.2342,-53.7757,2.88,Ajuricaba,4300208
Alagoa,31,-22.171,-44.6413,1.76,Alagoa,3101300
Alagoa Grande,25,-7.03943,-35.6206,3.75,Alagoa Grande,2500304
Alagoa Nova,25,-7.05377,-35.7591,3.88,Alagoa Nova,2500403
Alagoinha,25,-6.94657,-35.5332,4.79,Alagoinha,2500502
Alagoinha,25,-6.94657,-35.5332,4.79,Alagoinha,2600609
Alagoinha,26,-8.4665,-36.7788,4.23,Alagoinha,2500502
Alagoinha,26,-8.4665,-36.7788,4.23,Alagoinha,2600609
Alagoinha do Piauí,22,-7.00039,-40.9282,3.11,Alagoinha do Piauí,2200251
Alagoinhas,29,-12.1335,-38.4208,2.27,Alagoinhas,2900702
Alambari,35,-23.5503,-47.898,2.88,Alambari,3500758
Albertina,31,-22.2018,-46.6139,1.53,Albertina,3101409
Alcântara,21,-2.39574,-44.4062,2.79,Alcântara,2100204
Alcântaras,23,-3.58537,-40.5479,5.07,Alcântaras,2300507
Alcantil,25,-7.73668,-36.0511,3.61,Alcantil,2500536
Alcinópolis,50,-18.3255,-53.7042,1.58,Alcinópolis,5000252
Alcobaça,29,-17.5195,-39.2036,2.5,Alcobaça,2900801
Aldeias Altas,21,-4.62621,-43.4689,3.08,Aldeias Altas,2100303
Alecrim,43,-27.6579,-54.7649,2.99,Alecrim,4300307
Alegre,32,-20.758,-41.5382,1.7,Alegre,3200201
Alegrete,43,-29.7902,-55.7949,2.91,Alegrete,4300406
Alegrete do Piauí,22,-7.24196,-40.8566,3.06,Alegrete do Piauí,2200277
Alegria,43,-27.8345,-54.0557,3.02,Alegria,4300455
Além Paraíba,31,-21.8797,-42.7176,2.59,Além Paraíba,3101508
Alenquer,15,-1.94623,-54.7384,1.93,Alenquer,1500404
Alexandria,24,-6.40533,-38.0142,3.13,Alexandria,2400505
Alexânia,52,-16.0834,-48.5076,2.85,Alexânia,5200308
Alfenas,31,-21.4256,-45.9477,1.73,Alfenas,3101607
Alfredo Chaves,32,-20.6396,-40.7543,2.42,Alfredo Chaves,3200300
Alfredo Marcondes,35,-21.9527,-51.414,1.93,Alfredo Marcondes,3500808
Alfredo Vasconcelos,31,-21.1535,-43.7718,1.44,Alfredo Vasconcelos,3101631
Alfredo Wagner,42,-27.7001,-49.3273,10.0,Alfredo Wagner,4200705
Algodão de Jandaíra,25,-6.89292,-36.0129,3.6,Algodão de Jandaíra,2500577
Alhandra,25,-7.42977,-34.9057,4.62,Alhandra,2500601
Aliança,26,-7.60398,-35.2227,5.41,Aliança,2600708
Aliança do Tocantins,17,-11.3056,-48.9361,3.22,Aliança do Tocantins,1700350
Almadina,29,-14.7089,-39.6415,2.25,Almadina,2900900
Almas,17,-11.5706,-47.1792,2.65,Almas,1700400
Almeirim,15,-1.52904,-52.5788,2.05,Almeirim,1500503
Almenara,31,-16.1785,-40.6942,2.48,Almenara,3101706
Almino Afonso,24,-6.1475,-37.7636,4.03,Almino Afonso,2400604
Almirante Tamandaré,41,-25.3188,-49.3037,3.14,Almirante Tamandaré,4100400
Almirante Tamandaré do Sul,43,-28.1149,-52.9142,3.11,Almirante Tamandaré do Sul,4300471
Aloândia,52,-17.7292,-49.4769,3.28,Aloândia,5200506
Alpercata,31,-18.974,-41.97,1.58,Alpercata,3101805
Alpestre,43,-27.2502,-53.0341,4.51,Alpestre,4300505
Alpinópolis,31,-20.8631,-46.3878,2.02,Alpinópolis,3101904
Alta Floresta,51,-9.86674,-56.0867,2.56,Alta Floresta,5100250
Alta Floresta D'Oeste,11,-11.9283,-61.9953,9.5,Alta Floresta D'Oeste,1100015
Altair,35,-20.5242,-49.0571,2.34,Altair,3500907
Altamira,15,-3.20407,-52.21,2.34,Altamira,1500602
Altamira do Maranhão,21,-4.16598,-45.4706,3.06,Altamira do Maranhão,2100402
Altamira do Paraná,41,-24.7983,-52.7128,5.75,Altamira do Paraná,4100459
Altaneira,23,-6.99837,-39.7356,3.8,Altaneira,2300606
Alterosa,31,-21.2488,-46.1387,1.9,Alterosa,3102001
Altinho,26,-8.48482,-36.0644,3.87,Altinho,2600807
Altinópolis,35,-21.0214,-47.3712,2.1,Altinópolis,3501004
Alto Alegre,35,-21.5811,-50.168,1.96,Alto Alegre,3501103
Alto Alegre,35,-21.5811,-50.168,1.96,Alto Alegre,1400050
Alto Alegre,35,-21.5811,-50.168,1.96,Alto Alegre,4300554
Alto Alegre,14,2.98858,-61.3072,3.47,Alto Alegre,3501103
Alto Alegre,14,2.98858,-61.3072,3.47,Alto Alegre,1400050
Alto Alegre,14,2.98858,-61.3072,3.47,Alto Alegre,4300554
Alto Alegre,43,-28.7769,-52.9893,2.94,Alto Alegre,3501103
Alto Alegre,43,-28.7769,-52.9893,2.94,Alto Alegre,1400050
Alto Alegre,43,-28.7769,-52.9893,2.94,Alto Alegre,4300554
Alto Alegre do Maranhão,21,-4.213,-44.446,3.31,Alto Alegre do Maranhão,2100436
Alto Alegre do Pindaré,21,-3.66689,-45.8421,2.65,Alto Alegre do Pindaré,2100477
Alto Alegre dos Parecis,11,-12.132,-61.835,8.52,Alto Alegre dos Parecis,1100379
Alto Araguaia,51,-17.3153,-53.2181,1.9,Alto Araguaia,5100300
Alto Bela Vista,42,-27.4333,-51.9044,4.58,Alto Bela Vista,4200754
Alto Boa Vista,51,-11.6732,-51.3883,2.34,Alto Boa Vista,5100359
Alto Caparaó,31,-20.431,-41.8738,1.82,Alto Caparaó,3102050
Alto do Rodrigues,24,-5.28186,-36.75,3.34,Alto do Rodrigues,2400703
Alto Feliz,43,-29.3919,-51.3123,2.97,Alto Feliz,4300570
Alto Garças,51,-16.9462,-53.5272,1.73,Alto Garças,5100409
Alto Horizonte,52,-14.1978,-49.3378,2.68,Alto Horizonte,5200555
Alto Jequitibá,31,-20.4208,-41.967,1.84,Alto Jequitibá,3153509
Alto Longá,22,-5.25634,-42.2096,3.17,Alto Longá,2200301
Alto Paraguai,51,-14.5137,-56.4776,2.77,Alto Paraguai,5100508
Alto Paraíso,41,-26.1146,-52.7469,4.98,Alto Paraíso,4128625
Alto Paraíso,41,-26.1146,-52.7469,4.98,Alto Paraíso,1100403
Alto Paraíso,11,-9.71429,-63.3188,4.82,Alto Paraíso,4128625
Alto Paraíso,11,-9.71429,-63.3188,4.82,Alto Paraíso,1100403
Alto Paraíso de Goiás,52,-14.1305,-47.51,3.49,Alto Paraíso de Goiás,5200605
Alto Paraná,41,-23.1312,-52.3189,2.56,Alto Paraná,4100608
Alto Parnaíba,21,-9.10273,-45.9303,3.02,Alto Parnaíba,2100501
Alto Piquiri,41,-24.0224,-53.44,5.36,Alto Piquiri,4100707
Alto Rio Doce,31,-21.0281,-43.4067,2.13,Alto Rio Doce,3102100
Alto Rio Novo,32,-19.0618,-41.0209,1.76,Alto Rio Novo,3200359
Alto Santo,23,-5.50894,-38.2743,3.4,Alto Santo,2300705
Alto Taquari,51,-17.8241,-53.2792,2.16,Alto Taquari,5100607
Altônia,41,-23.8759,-53.8958,4.36,Altônia,4100509
Altos,22,-5.03888,-42.4612,3.08,Altos,2200400
Alumínio,35,-23.5306,-47.2546,2.7,Alumínio,3501152
Alvarães,13,-3.22727,-64.8007,4.12,Alvarães,1300029
Alvarenga,31,-19.4174,-41.7317,1.62,Alvarenga,3102209
Álvares Florence,35,-20.3203,-49.9141,2.7,Álvares Florence,3501202
Álvares Machado,35,-22.0764,-51.4722,1.93,Álvares Machado,3501301
Álvaro de Carvalho,35,-22.0841,-49.719,2.13,Álvaro de Carvalho,3501400
Alvinlândia,35,-22.4435,-49.7623,2.02,Alvinlândia,3501509
Alvinópolis,31,-20.1098,-43.0535,2.16,Alvinópolis,3102308
Alvorada,17,-12.4785,-49.1249,3.4,Alvorada,1700707
Alvorada,17,-12.4785,-49.1249,3.4,Alvorada,4300604
Alvorada,43,-29.9914,-51.0809,2.65,Alvorada,1700707
Alvorada,43,-29.9914,-51.0809,2.65,Alvorada,4300604
Alvorada D'Oeste,11,-11.3463,-62.2847,5.97,Alvorada D'Oeste,1100346
Alvorada de Minas,31,-18.7334,-43.3638,1.58,Alvorada de Minas,3102407
Alvorada do Gurguéia,22,-8.42418,-43.777,2.99,Alvorada do Gurguéia,2200459
Alvorada do Norte,52,-14.4797,-46.491,1.55,Alvorada do Norte,5200803
Alvorada do Sul,41,-22.7813,-51.2297,1.82,Alvorada do Sul,4100806
Amajari,14,3.64571,-61.3692,4.63,Amajari,1400027
Amambai,50,-23.1058,-55.2253,2.7,Amambai,5000609
Amapá,16,2.05267,-50.7957,2.65,Amapá,1600105
Amapá do Maranhão,21,-1.67524,-46.0024,3.15,Amapá do Maranhão,2100550
Amaporã,41,-23.0943,-52.7866,2.48,Amaporã,4100905
Amaraji,26,-8.37691,-35.4501,3.93,Amaraji,2600906
Amaral Ferrador,43,-30.8756,-52.2509,2.39,Amaral Ferrador,4300638
Amaralina,52,-13.9236,-49.2962,2.19,Amaralina,5200829
Amarante,22,-6.24304,-42.8433,3.69,Amarante,2200509
Amarante do Maranhão,21,-5.56913,-46.7473,2.88,Amarante do Maranhão,2100600
Amargosa,29,-13.0215,-39.602,2.97,Amargosa,2901007
Amaturá,13,-3.37455,-68.2005,6.08,Amaturá,1300060
Amélia Rodrigues,29,-12.3914,-38.7563,2.39,Amélia Rodrigues,2901106
América Dourada,29,-11.4429,-41.439,3.11,América Dourada,2901155
Americana,35,-22.7374,-47.3331,2.7,Americana,3501608
Americano do Brasil,52,-16.2514,-49.9831,2.7,Americano do Brasil,5200852
Américo Brasiliense,35,-21.7288,-48.1147,2.54,Américo Brasiliense,3501707
Américo de Campos,35,-20.2985,-49.7359,2.48,Américo de Campos,3501806
Ametista do Sul,43,-27.3607,-53.183,2.94,Ametista do Sul,4300646
Amontada,23,-3.36017,-39.8288,3.49,Amontada,2300754
Amorinópolis,52,-16.6151,-51.0919,1.9,Amorinópolis,5200902
Amparo,25,-7.55502,-37.0628,3.06,Amparo,2500734
Amparo,25,-7.55502,-37.0628,3.06,Amparo,3501905
Amparo,35,-22.7088,-46.772,3.22,Amparo,2500734
Amparo,35,-22.7088,-46.772,3.22,Amparo,3501905
Amparo de São Francisco,28,-10.1348,-36.935,3.57,Amparo de São Francisco,2800100
Amparo do Serra,31,-20.5051,-42.8009,3.06,Amparo do Serra,3102506
Ampére,41,-25.9168,-53.4686,3.19,Ampére,4101002
Anadia,27,-9.68489,-36.3078,6.74,Anadia,2700201
Anagé,29,-14.6151,-41.1356,2.22,Anagé,2901205
Anahy,41,-24.6449,-53.1332,4.08,Anahy,4101051
Anajás,15,-0.996811,-49.9354,2.48,Anajás,1500701
Anajatuba,21,-3.26269,-44.6126,2.44,Anajatuba,2100709
Analândia,35,-22.1289,-47.6619,2.34,Analândia,3502002
Anamã,13,-3.56697,-61.3963,2.59,Anamã,1300086
Ananás,17,-6.36437,-48.0735,2.42,Ananás,1701002
Ananindeua,15,-1.36391,-48.3743,1.96,Ananindeua,1500800
Anápolis,52,-16.3281,-48.953,3.31,Anápolis,5201108
Anapu,15,-3.46985,-51.2003,2.5,Anapu,1500859
Anapurus,21,-3.67577,-43.1014,2.99,Anapurus,2100808
Anastácio,50,-20.4823,-55.8104,3.22,Anastácio,5000708
Anaurilândia,50,-22.1852,-52.7191,2.85,Anaurilândia,5000807
Anchieta,42,-26.5382,-53.3319,3.15,Anchieta,4200804
Anchieta,42,-26.5382,-53.3319,3.15,Anchieta,3200409
Anchieta,32,-20.7955,-40.6425,2.65,Anchieta,4200804
Anchieta,32,-20.7955,-40.6425,2.65,Anchieta,3200409
Andaraí,29,-12.8049,-41.3297,3.16,Andaraí,2901304
Andirá,41,-23.0533,-50.2304,1.3,Andirá,4101101
Andorinha,29,-10.3482,-39.8391,2.84,Andorinha,2901353
Andradas,31,-22.0695,-46.5724,1.38,Andradas,3102605
Andradina,35,-20.8948,-51.3786,2.16,Andradina,3502101
André da Rocha,43,-28.6283,-51.5797,3.32,André da Rocha,4300661
Andrelândia,31,-21.7411,-44.3117,1.01,Andrelândia,3102803
Angatuba,35,-23.4917,-48.4139,2.68,Angatuba,3502200
Angelândia,31,-17.7279,-42.2641,2.48,Angelândia,3102852
Angélica,50,-22.1527,-53.7708,2.91,Angélica,5000856
Angelim,26,-8.88429,-36.2902,4.57,Angelim,2601003
Angelina,42,-27.5704,-48.9879,10.0,Angelina,4200903
Angical,29,-12.0063,-44.7003,1.82,Angical,2901403
Angical do Piauí,22,-6.08786,-42.74,3.37,Angical do Piauí,2200608
Angico,17,-6.39179,-47.8611,2.85,Angico,1701051
Angicos,24,-5.65792,-36.6094,3.26,Angicos,2400802
Angra dos Reis,33,-23.0011,-44.3196,1.62,Angra dos Reis,3300100
Anguera,29,-12.1462,-39.2462,2.3,Anguera,2901502
Ângulo,41,-23.1946,-51.9154,2.39,Ângulo,4101150
Anhanguera,52,-18.3339,-48.2204,2.99,Anhanguera,5201207
Anhembi,35,-22.793,-48.1336,2.94,Anhembi,3502309
Anhumas,35,-22.2934,-51.3895,1.87,Anhumas,3502408
Anicuns,52,-16.4642,-49.9617,1.84,Anicuns,5201306
Anísio de Abreu,22,-9.18564,-43.0494,3.4,Anísio de Abreu,2200707
Anita Garibaldi,42,-27.6897,-51.1271,4.25,Anita Garibaldi,4201000
Anitápolis,42,-27.9012,-49.1316,10.0,Anitápolis,4201109
Anori,13,-3.74603,-61.6575,2.54,Anori,1300102
Anta Gorda,43,-28.9698,-52.0102,3.37,Anta Gorda,4300703
Antas,29,-10.3856,-38.3401,2.91,Antas,2901601
Antonina,41,-25.4386,-48.7191,2.1,Antonina,4101200
Antonina do Norte,23,-6.76919,-39.987,3.34,Antonina do Norte,2300804
Antônio Almeida,22,-7.21276,-44.1889,3.74,Antônio Almeida,2200806
Antônio Cardoso,29,-12.4335,-39.1176,2.3,Antônio Cardoso,2901700
Antônio Carlos,42,-27.5191,-48.766,7.48,Antônio Carlos,4201208
Antônio Carlos,42,-27.5191,-48.766,7.48,Antônio Carlos,3102902
Antônio Carlos,31,-21.321,-43.7451,1.44,Antônio Carlos,4201208
Antônio Carlos,31,-21.321,-43.7451,1.44,Antônio Carlos,3102902
Antônio Dias,31,-19.6491,-42.8732,2.07,Antônio Dias,3103009
Antônio Gonçalves,29,-10.5767,-40.2785,4.56,Antônio Gonçalves,2901809
Antônio João,50,-22.1927,-55.9517,2.74,Antônio João,5000906
Antônio Martins,24,-6.21367,-37.8834,3.28,Antônio Martins,2400901
Antônio Olinto,41,-25.9804,-50.1972,10.0,Antônio Olinto,4101309
Antônio Prado,43,-28.8565,-51.2883,3.4,Antônio Prado,4300802
Antônio Prado de Minas,31,-21.0192,-42.1109,1.3,Antônio Prado de Minas,3103108
Aparecida,25,-6.78466,-38.0803,3.17,Aparecida,2500775
Aparecida,25,-6.78466,-38.0803,3.17,Aparecida,3502507
Aparecida,35,-22.8495,-45.2325,1.5,Aparecida,2500775
Aparecida,35,-22.8495,-45.2325,1.5,Aparecida,3502507
Aparecida d'Oeste,35,-20.4487,-50.8835,2.1,Aparecida d'Oeste,3502606
Aparecida de Goiânia,52,-16.8198,-49.2469,2.97,Aparecida de Goiânia,5201405
Aparecida do Rio Doce,52,-18.2941,-51.1516,2.65,Aparecida do Rio Doce,5201454
Aparecida do Rio Negro,17,-9.94139,-47.9638,3.63,Aparecida do Rio Negro,1701101
Aparecida do Taboado,50,-20.0873,-51.0961,2.42,Aparecida do Taboado,5001003
Aperibé,33,-21.6252,-42.1017,1.58,Aperibé,3300159
Apiacá,32,-21.1523,-41.5693,1.58,Apiacá,3200508
Apiacás,51,-9.53981,-57.4587,1.76,Apiacás,5100805
Apiaí,35,-24.5108,-48.8443,3.59,Apiaí,3502705
Apicum-Açu,21,-1.45862,-45.0864,3.32,Apicum-Açu,2100832
Apiúna,42,-27.0375,-49.3885,10.0,Apiúna,4201257
Apodi,24,-5.65349,-37.7946,3.69,Apodi,2401008
Aporá,29,-11.6577,-38.0814,2.48,Aporá,2901908
Aporé,52,-18.9607,-51.9232,2.16,Aporé,5201504
Apuarema,29,-13.8542,-39.7501,2.62,Apuarema,2901957
Apucarana,41,-23.55,-51.4635,2.39,Apucarana,4101408
Apuí,13,-7.19409,-59.896,3.07,Apuí,1300144
Apuiarés,23,-3.94506,-39.4359,3.98,Apuiarés,2300903
Aquidabã,28,-10.278,-37.0148,3.62,Aquidabã,2800209
Aquidauana,50,-20.4666,-55.7868,3.22,Aquidauana,5001102
Aquiraz,23,-3.89929,-38.3896,3.78,Aquiraz,2301000
Arabutã,42,-27.1587,-52.1423,4.73,Arabutã,4201273
Araçagi,25,-6.84374,-35.3737,3.63,Araçagi,2500809
Araçaí,31,-19.1955,-44.2493,2.36,Araçaí,3103207
Aracaju,28,-10.9091,-37.0677,2.53,Aracaju,2800308
Araçariguama,35,-23.4366,-47.0608,3.46,Araçariguama,3502754
Araças,29,-12.22,-38.2027,2.1,Araças,2902054
Aracati,23,-4.55826,-37.7679,3.26,Aracati,2301109
Aracatu,29,-14.428,-41.4648,2.56,Aracatu,2902005
Araçatuba,35,-21.2076,-50.4401,1.98,Araçatuba,3502804
Araci,29,-11.3253,-38.9584,2.5,Araci,2902104
Aracitaba,31,-21.3446,-43.3736,2.1,Aracitaba,3103306
Araçoiaba,26,-7.78391,-35.0809,4.49,Araçoiaba,2601052
Aracoiaba,23,-4.36872,-38.8125,3.42,Aracoiaba,2301208
Araçoiaba da Serra,35,-23.5029,-47.6166,2.82,Araçoiaba da Serra,3502903
Aracruz,32,-19.82,-40.2764,2.36,Aracruz,3200607
Araçu,52,-16.3563,-49.6804,1.93,Araçu,5201603
Araçuaí,31,-16.8523,-42.0637,2.36,Araçuaí,3103405
Aragarças,52,-15.8955,-52.2372,2.13,Aragarças,5201702
Aragoiânia,52,-16.9087,-49.4476,2.59,Aragoiânia,5201801
Aragominas,17,-7.16005,-48.5291,3.17,Aragominas,1701309
Araguacema,17,-8.80755,-49.5569,2.88,Araguacema,1701903
Araguaçu,17,-12.9289,-49.8231,3.34,Araguaçu,1702000
Araguaiana,51,-15.7291,-51.8341,1.5,Araguaiana,5101001
Araguaína,17,-7.19238,-48.2044,3.17,Araguaína,1702109
Araguainha,51,-16.857,-53.0318,1.35,Araguainha,5101209
Araguanã,17,-6.58225,-48.6395,3.2,Araguanã,1702158
Araguanã,17,-6.58225,-48.6395,3.2,Araguanã,2100873
Araguanã,21,-2.94644,-45.6589,3.04,Araguanã,1702158
Araguanã,21,-2.94644,-45.6589,3.04,Araguanã,2100873
Araguapaz,52,-15.0909,-50.6315,1.55,Araguapaz,5202155
Araguari,31,-18.6456,-48.1934,3.46,Araguari,3103504
Araguatins,17,-5.64659,-48.1232,3.08,Araguatins,1702208
Araioses,21,-2.89091,-41.905,3.42,Araioses,2100907
Aral Moreira,50,-22.9385,-55.6334,2.34,Aral Moreira,5001243
Aramari,29,-12.0884,-38.4969,2.22,Aramari,2902203
Arambaré,43,-30.9092,-51.5046,2.82,Arambaré,4300851
Arame,21,-4.88347,-46.0032,3.63,Arame,2100956
Aramina,35,-20.0882,-47.7873,2.22,Aramina,3503000
Arandu,35,-23.1386,-49.0487,2.39,Arandu,3503109
Arantina,31,-21.9102,-44.2555,1.93,Arantina,3103603
Arapeí,35,-22.6717,-44.4441,1.76,Arapeí,3503158
Arapiraca,27,-9.75487,-36.6615,5.39,Arapiraca,2700300
Arapoema,17,-7.65463,-49.0637,3.31,Arapoema,1702307
Araponga,31,-20.6686,-42.5178,3.46,Araponga,3103702
Arapongas,41,-23.4153,-51.4259,2.48,Arapongas,4101507
Araporã,31,-18.4357,-49.1847,3.8,Araporã,3103751
Arapoti,41,-24.1548,-49.8285,2.02,Arapoti,4101606
Arapuã,41,-24.3132,-51.7856,2.07,Arapuã,4101655
Arapuá,31,-19.0268,-46.1484,2.34,Arapuá,3103801
Araputanga,51,-15.4641,-58.3425,2.74,Araputanga,5101258
Araquari,42,-26.3754,-48.7188,1.94,Araquari,4201307
Arara,25,-6.82813,-35.7552,3.46,Arara,2500908
Araranguá,42,-28.9356,-49.4918,6.47,Araranguá,4201406
Araraquara,35,-21.7845,-48.178,2.54,Araraquara,3503208
Araras,35,-22.3572,-47.3842,2.19,Araras,3503307
Ararendá,23,-4.74567,-40.831,4.95,Ararendá,2301257
Arari,21,-3.45214,-44.7665,2.75,Arari,2101004
Araricá,43,-29.6168,-50.9291,2.44,Araricá,4300877
Araripe,23,-7.21319,-40.1359,4.61,Araripe,2301307
Araripina,26,-7.57073,-40.494,4.75,Araripina,2601102
Araruama,33,-22.8697,-42.3326,2.88,Araruama,3300209
Araruna,41,-23.9315,-52.5021,2.62,Araruna,4101705
Araruna,41,-23.9315,-52.5021,2.62,Araruna,2501005
Araruna,25,-6.54848,-35.7498,3.71,Araruna,4101705
Araruna,25,-6.54848,-35.7498,3.71,Araruna,2501005
Arataca,29,-15.2651,-39.419,2.34,Arataca,2902252
Aratiba,43,-27.3978,-52.2975,4.83,Aratiba,4300901
Aratuba,23,-4.41229,-39.0471,4.14,Aratuba,2301406
Aratuípe,29,-13.0716,-39.0038,2.49,Aratuípe,2902302
Arauá,28,-11.2614,-37.6201,2.48,Arauá,2800407
Araucária,41,-25.5859,-49.4047,3.22,Araucária,4101804
Araújos,31,-19.9405,-45.1671,2.16,Araújos,3103900
Araxá,31,-19.5902,-46.9438,2.59,Araxá,3104007
Arceburgo,31,-21.359,-46.9401,1.7,Arceburgo,3104106
Arco-Íris,35,-21.7728,-50.466,1.96,Arco-Íris,3503356
Arcos,31,-20.2863,-45.5373,2.07,Arcos,3104205
Arcoverde,26,-8.41519,-37.0577,4.29,Arcoverde,2601201
Areado,31,-21.3572,-46.1421,1.9,Areado,3104304
Areal,33,-22.2283,-43.1118,2.34,Areal,3300225
Arealva,35,-22.031,-48.9135,2.05,Arealva,3503406
Areia,25,-6.96396,-35.6977,3.88,Areia,2501104
Areia Branca,24,-4.95254,-37.1252,3.2,Areia Branca,2401107
Areia Branca,24,-4.95254,-37.1252,3.2,Areia Branca,2800506
Areia Branca,28,-10.758,-37.3251,2.82,Areia Branca,2401107
Areia Branca,28,-10.758,-37.3251,2.82,Areia Branca,2800506
Areia de Baraúnas,25,-7.11702,-36.9404,3.31,Areia de Baraúnas,2501153
Areial,25,-7.04789,-35.9313,3.57,Areial,2501203
Areias,35,-22.5786,-44.6992,2.02,Areias,3503505
Areiópolis,35,-22.6672,-48.6681,2.5,Areiópolis,3503604
Arenápolis,51,-14.4472,-56.8437,2.82,Arenápolis,5101308
Arenópolis,52,-16.3837,-51.5563,2.13,Arenópolis,5202353
Arês,24,-6.18831,-35.1608,3.54,Arês,2401206
Argirita,31,-21.6083,-42.8292,2.22,Argirita,3104403
Aricanduva,31,-17.8666,-42.5533,2.45,Aricanduva,3104452
Arinos,31,-15.9187,-46.1043,2.05,Arinos,3104502
Aripuanã,51,-10.1723,-59.4568,2.65,Aripuanã,5101407
Ariquemes,11,-9.90571,-63.0325,3.65,Ariquemes,1100023
Ariranha,35,-21.1872,-48.7904,2.65,Ariranha,3503703
Ariranha do Ivaí,41,-24.3857,-51.5839,2.42,Ariranha do Ivaí,4101853
Armação dos Búzios,33,-22.7528,-41.8846,3.49,Armação dos Búzios,3300233
Armazém,42,-28.2448,-49.0215,7.57,Armazém,4201505
Arneiroz,23,-6.3165,-40.1653,3.11,Arneiroz,2301505
Aroazes,22,-6.11022,-41.7822,3.69,Aroazes,2200905
Aroeiras,25,-7.54473,-35.7066,3.56,Aroeiras,2501302
Aroeiras do Itaim,22,-7.24502,-41.5325,3.42,Aroeiras do Itaim,2200954
Arraial,22,-6.65075,-42.5418,3.83,Arraial,2201002
Arraial do Cabo,33,-22.9774,-42.0267,3.4,Arraial do Cabo,3300258
Arraias,17,-12.9287,-46.9359,3.34,Arraias,1702406
Arroio do Meio,43,-29.4014,-51.9557,2.36,Arroio do Meio,4301008
Arroio do Padre,43,-31.4389,-52.4246,2.36,Arroio do Padre,4301073
Arroio do Sal,43,-29.5439,-49.8895,5.47,Arroio do Sal,4301057
Arroio do Tigre,43,-29.3348,-53.0966,2.59,Arroio do Tigre,4301206
Arroio dos Ratos,43,-30.0875,-51.7275,2.59,Arroio dos Ratos,4301107
Arroio Grande,43,-32.2327,-53.0862,2.18,Arroio Grande,4301305
Arroio Trinta,42,-26.9257,-51.3407,10.0,Arroio Trinta,4201604
Artur Nogueira,35,-22.5727,-47.1727,2.62,Artur Nogueira,3503802
Aruanã,52,-14.9166,-51.075,1.44,Aruanã,5202502
Arujá,35,-23.3965,-46.32,3.42,Arujá,3503901
Arvoredo,42,-27.0748,-52.4543,4.63,Arvoredo,4201653
Arvorezinha,43,-28.8737,-52.1781,3.66,Arvorezinha,4301404
Ascurra,42,-26.9548,-49.3783,10.0,Ascurra,4201703
Aspásia,35,-20.16,-50.728,2.7,Aspásia,3503950
Assaí,41,-23.3697,-50.8459,2.02,Assaí,4101903
Assaré,23,-6.8669,-39.8689,3.06,Assaré,2301604
Assis,35,-22.66,-50.4183,2.36,Assis,3504008
Assis Brasil,12,-10.9298,-69.5738,9.8,Assis Brasil,1200054
Assis Chateaubriand,41,-24.4168,-53.5213,5.54,Assis Chateaubriand,4102000
Assunção,25,-7.07231,-36.725,4.23,Assunção,2501351
Assunção do Piauí,22,-5.865,-41.0389,3.63,Assunção do Piauí,2201051
Astolfo Dutra,31,-21.3184,-42.8572,2.91,Astolfo Dutra,3104601
Astorga,41,-23.2318,-51.6668,2.27,Astorga,4102109
Atalaia,41,-23.1517,-52.0551,2.45,Atalaia,4102208
Atalaia,41,-23.1517,-52.0551,2.45,Atalaia,2700409
Atalaia,27,-9.5119,-36.0086,6.93,Atalaia,4102208
Atalaia,27,-9.5119,-36.0086,6.93,Atalaia,2700409
Atalaia do Norte,13,-4.37055,-70.1967,5.88,Atalaia do Norte,1300201
Atalanta,42,-27.4219,-49.7789,10.0,Atalanta,4201802
Ataléia,31,-18.0438,-41.1149,2.02,Ataléia,3104700
Atibaia,35,-23.1171,-46.5563,3.06,Atibaia,3504107
Atilio Vivacqua,32,-20.913,-41.1986,1.53,Atilio Vivacqua,3200706
Augustinópolis,17,-5.46863,-47.8863,3.17,Augustinópolis,1702554
Augusto Corrêa,15,-1.05109,-46.6147,3.18,Augusto Corrêa,1500909
Augusto de Lima,31,-18.0997,-44.2655,1.87,Augusto de Lima,3104809
Augusto Pestana,43,-28.5172,-53.9883,3.06,Augusto Pestana,4301503
Augusto Severo (Campo Grande),24,-5.86206,-37.3135,3.54,Augusto Severo (Campo Grande),2401305
Áurea,43,-27.6936,-52.0505,3.02,Áurea,4301552
Aurelino Leal,29,-14.321,-39.329,2.07,Aurelino Leal,2902401
Auriflama,35,-20.6836,-50.5572,2.65,Auriflama,3504206
Aurilândia,52,-16.6773,-50.4641,1.62,Aurilândia,5202601
Aurora,23,-6.93349,-38.9742,3.63,Aurora,2301703
Aurora,23,-6.93349,-38.9742,3.63,Aurora,4201901
Aurora,42,-27.3098,-49.6295,10.0,Aurora,2301703
Aurora,42,-27.3098,-49.6295,10.0,Aurora,4201901
Aurora do Pará,15,-2.14898,-47.5677,2.13,Aurora do Pará,1500958
Aurora do Tocantins,17,-12.7105,-46.4076,2.34,Aurora do Tocantins,1702703
Autazes,13,-3.58574,-59.1256,4.15,Autazes,1300300
Avaí,35,-22.1514,-49.3356,2.05,Avaí,3504305
Avanhandava,35,-21.4584,-49.9509,2.13,Avanhandava,3504404
Avaré,35,-23.1067,-48.9251,2.25,Avaré,3504503
Aveiro,15,-3.60841,-55.3199,2.22,Aveiro,1501006
Avelino Lopes,22,-10.1345,-43.9563,3.46,Avelino Lopes,2201101
Avelinópolis,52,-16.4672,-49.7579,1.93,Avelinópolis,5202809
Axixá,21,-2.83939,-44.062,2.48,Axixá,2101103
Axixá do Tocantins,17,-5.61275,-47.7701,3.02,Axixá do Tocantins,1702901
Babaçulândia,17,-7.20923,-47.7613,2.94,Babaçulândia,1703008
Bacabal,21,-4.22447,-44.7832,3.06,Bacabal,2101202
Bacabeira,21,-2.96452,-44.3164,2.45,Bacabeira,2101251
Bacuri,21,-1.6965,-45.1328,2.92,Bacuri,2101301
Bacurituba,21,-2.71,-44.7329,2.45,Bacurituba,2101350
Bady Bassitt,35,-20.9197,-49.4385,2.7,Bady Bassitt,3504602
Baependi,31,-21.957,-44.8874,1.15,Baependi,3104908
Bagé,43,-31.3297,-54.0999,2.1,Bagé,4301602
Bagre,15,-1.90057,-50.1987,2.45,Bagre,1501105
Baía da Traição,25,-6.69209,-34.9381,3.2,Baía da Traição,2501401
Baía Formosa,24,-6.37161,-35.0033,3.54,Baía Formosa,2401404
Baianópolis,29,-12.3016,-44.5388,2.1,Baianópolis,2902500
Baião,15,-2.79021,-49.6694,2.87,Baião,1501204
Baixa Grande,29,-11.9519,-40.169,2.44,Baixa Grande,2902609
Baixa Grande do Ribeiro,22,-7.84903,-45.219,3.98,Baixa Grande do Ribeiro,2201150
Baixio,23,-6.71945,-38.7134,3.08,Baixio,2301802
Baixo Guandu,32,-19.5213,-41.0109,1.62,Baixo Guandu,3200805
Balbinos,35,-21.8963,-49.3619,1.93,Balbinos,3504701
Baldim,31,-19.2832,-43.9613,1.55,Baldim,3105004
Baliza,52,-16.1966,-52.5393,2.36,Baliza,5203104
Balneário Arroio do Silva,42,-28.9806,-49.4237,6.47,Balneário Arroio do Silva,4201950
Balneário Barra do Sul,42,-26.4597,-48.6123,3.64,Balneário Barra do Sul,4202057
Balneário Camboriú,42,-26.9926,-48.6352,8.59,Balneário Camboriú,4202008
Balneário Gaivota,42,-29.1527,-49.5841,6.48,Balneário Gaivota,4202073
Balneário Piçarras,42,-26.7639,-48.6717,5.84,Balneário Piçarras,4212809
Balneário Pinhal,43,-30.2419,-50.2337,2.99,Balneário Pinhal,4301636
Balneário Rincão,42,-28.8314,-49.2352,6.47,Balneário Rincão,4220000
Balsa Nova,41,-25.5804,-49.6291,4.41,Balsa Nova,4102307
Bálsamo,35,-20.7348,-49.5865,2.79,Bálsamo,3504800
Balsas,21,-7.53214,-46.0372,3.14,Balsas,2101400
Bambuí,31,-20.0166,-45.9754,2.22,Bambuí,3105103
Banabuiú,23,-5.30454,-38.9132,3.22,Banabuiú,2301851
Bananal,35,-22.6819,-44.3281,1.87,Bananal,3504909
Bananeiras,25,-6.74775,-35.6246,3.46,Bananeiras,2501500
Bandeira,31,-15.8783,-40.5622,2.22,Bandeira,3105202
Bandeira do Sul,31,-21.7308,-46.3833,2.42,Bandeira do Sul,3105301
Bandeirante,42,-26.7705,-53.6413,4.94,Bandeirante,4202081
Bandeirantes,50,-19.9275,-54.3585,2.05,Bandeirantes,5001508
Bandeirantes,50,-19.9275,-54.3585,2.05,Bandeirantes,4102406
Bandeirantes,41,-23.1078,-50.3704,1.26,Bandeirantes,5001508
Bandeirantes,41,-23.1078,-50.3704,1.26,Bandeirantes,4102406
Bandeirantes do Tocantins,17,-7.75612,-48.5836,3.28,Bandeirantes do Tocantins,1703057
Bannach,15,-7.34779,-50.3959,3.63,Bannach,1501253
Banzaê,29,-10.5788,-38.6212,2.65,Banzaê,2902658
Barão,43,-29.3725,-51.4949,3.83,Barão,4301651
Barão de Antonina,35,-23.6284,-49.5634,2.48,Barão de Antonina,3505005
Barão de Cocais,31,-19.9389,-43.4755,2.68,Barão de Cocais,3105400
Barão de Cotegipe,43,-27.6208,-52.3798,4.22,Barão de Cotegipe,4301701
Barão de Grajaú,21,-6.74463,-43.0261,3.34,Barão de Grajaú,2101509
Barão de Melgaço,51,-16.2067,-55.9623,3.06,Barão de Melgaço,5101605
Barão de Monte Alto,31,-21.2444,-42.2372,1.12,Barão de Monte Alto,3105509
Barão do Triunfo,43,-30.3891,-51.7384,3.86,Barão do Triunfo,4301750
Baraúna,24,-5.06977,-37.6129,3.69,Baraúna,2401453
Baraúna,24,-5.06977,-37.6129,3.69,Baraúna,2501534
Baraúna,25,-6.63484,-36.2601,3.69,Baraúna,2401453
Baraúna,25,-6.63484,-36.2601,3.69,Baraúna,2501534
Barbacena,31,-21.2214,-43.7703,1.5,Barbacena,3105608
Barbalha,23,-7.2982,-39.3021,3.51,Barbalha,2301901
Barbosa,35,-21.2657,-49.9518,1.87,Barbosa,3505104
Barbosa Ferraz,41,-24.0334,-52.004,2.3,Barbosa Ferraz,4102505
Barcarena,15,-1.51187,-48.6195,2.45,Barcarena,1501303
Barcelona,24,-5.94284,-35.9247,3.51,Barcelona,2401503
Barcelos,13,-0.983373,-62.9311,3.55,Barcelos,1300409
Bariri,35,-22.073,-48.7438,2.19,Bariri,3505203
Barra,29,-11.0859,-43.1459,1.96,Barra,2902708
Barra Bonita,42,-26.654,-53.44,5.36,Barra Bonita,4202099
Barra Bonita,42,-26.654,-53.44,5.36,Barra Bonita,3505302
Barra Bonita,35,-22.4909,-48.5583,2.62,Barra Bonita,4202099
Barra Bonita,35,-22.4909,-48.5583,2.62,Barra Bonita,3505302
Barra D'Alcântara,22,-6.51645,-42.1146,3.92,Barra D'Alcântara,2201176
Barra da Estiva,29,-13.6237,-41.3347,3.46,Barra da Estiva,2902807
Barra de Guabiraba,26,-8.42075,-35.6585,3.53,Barra de Guabiraba,2601300
Barra de Santa Rosa,25,-6.71816,-36.0671,3.46,Barra de Santa Rosa,2501609
Barra de Santana,25,-7.51809,-35.9913,3.45,Barra de Santana,2501575
Barra de Santo Antônio,27,-9.4023,-35.5101,7.05,Barra de Santo Antônio,2700508
Barra de São Francisco,32,-18.7548,-40.8965,1.87,Barra de São Francisco,3200904
Barra de São Miguel,25,-7.74603,-36.3209,3.06,Barra de São Miguel,2501708
Barra de São Miguel,25,-7.74603,-36.3209,3.06,Barra de São Miguel,2700607
Barra de São Miguel,27,-9.83842,-35.9057,6.4,Barra de São Miguel,2501708
Barra de São Miguel,27,-9.83842,-35.9057,6.4,Barra de São Miguel,2700607
Barra do Bugres,51,-15.0702,-57.1878,2.48,Barra do Bugres,5101704
Barra do Chapéu,35,-24.4722,-49.0238,3.17,Barra do Chapéu,3505351
Barra do Choça,29,-14.8654,-40.5791,2.79,Barra do Choça,2902906
Barra do Corda,21,-5.49682,-45.2485,2.91,Barra do Corda,2101608
Barra do Garças,51,-15.8804,-52.264,2.13,Barra do Garças,5101803
Barra do Guarita,43,-27.1927,-53.7109,2.9,Barra do Guarita,4301859
Barra do Jacaré,41,-23.116,-50.1842,1.38,Barra do Jacaré,4102703
Barra do Mendes,29,-11.81,-42.059,3.57,Barra do Mendes,2903003
Barra do Ouro,17,-7.69593,-47.6776,2.74,Barra do Ouro,1703073
Barra do Piraí,33,-22.4715,-43.8269,2.97,Barra do Piraí,3300308
Barra do Quaraí,43,-30.2029,-57.5497,2.85,Barra do Quaraí,4301875
Barra do Ribeiro,43,-30.2939,-51.3014,3.28,Barra do Ribeiro,4301909
Barra do Rio Azul,43,-27.4069,-52.4084,4.73,Barra do Rio Azul,4301925
Barra do Rocha,29,-14.2,-39.5991,1.9,Barra do Rocha,2903102
Barra do Turvo,35,-24.759,-48.5013,3.07,Barra do Turvo,3505401
Barra dos Coqueiros,28,-10.8996,-37.0323,2.87,Barra dos Coqueiros,2800605
Barra Funda,43,-27.9205,-53.0391,2.74,Barra Funda,4301958
Barra Longa,31,-20.2869,-43.0402,1.98,Barra Longa,3105707
Barra Mansa,33,-22.5481,-44.1752,2.54,Barra Mansa,3300407
Barra Velha,42,-26.637,-48.6933,5.84,Barra Velha,4202107
Barracão,43,-27.6739,-51.4585,5.23,Barracão,4301800
Barracão,43,-27.6739,-51.4585,5.23,Barracão,4102604
Barracão,41,-26.2502,-53.6324,6.45,Barracão,4301800
Barracão,41,-26.2502,-53.6324,6.45,Barracão,4102604
Barras,22,-4.24468,-42.2922,2.91,Barras,2201200
Barreira,23,-4.28921,-38.6429,3.83,Barreira,2301950
Barreiras,29,-12.1439,-44.9968,2.56,Barreiras,2903201
Barreiras do Piauí,22,-9.9296,-45.4702,3.49,Barreiras do Piauí,2201309
Barreirinha,13,-2.79886,-57.0679,2.84,Barreirinha,1300508
Barreirinhas,21,-2.75863,-42.8232,3.4,Barreirinhas,2101707
Barreiros,26,-8.81605,-35.1832,6.99,Barreiros,2601409
Barretos,35,-20.5531,-48.5698,2.34,Barretos,3505500
Barrinha,35,-21.1864,-48.1636,2.07,Barrinha,3505609
Barro,23,-7.17188,-38.7741,3.54,Barro,2302008
Barro Alto,29,-11.7605,-41.9054,3.17,Barro Alto,2903235
Barro Alto,29,-11.7605,-41.9054,3.17,Barro Alto,5203203
Barro Alto,52,-14.9658,-48.9086,3.51,Barro Alto,2903235
Barro Alto,52,-14.9658,-48.9086,3.51,Barro Alto,5203203
Barro Duro,22,-5.81673,-42.5147,3.31,Barro Duro,2201408
Barro Preto,29,-14.7948,-39.476,2.7,Barro Preto,2903300
Barrocas,29,-11.5272,-39.0776,2.56,Barrocas,2903276
Barrolândia,17,-9.83404,-48.7252,3.8,Barrolândia,1703107
Barroquinha,23,-3.02051,-41.1358,3.89,Barroquinha,2302057
Barros Cassal,43,-29.0947,-52.5836,3.71,Barros Cassal,4302006
Barroso,31,-21.1907,-43.972,1.47,Barroso,3105905
Barueri,35,-23.5057,-46.879,3.26,Barueri,3505708
Bastos,35,-21.921,-50.7357,1.93,Bastos,3505807
Bataguassu,50,-21.7159,-52.4221,2.82,Bataguassu,5001904
Batalha,22,-4.0223,-42.0787,2.79,Batalha,2201507
Batalha,22,-4.0223,-42.0787,2.79,Batalha,2700706
Batalha,27,-9.6742,-37.133,3.8,Batalha,2201507
Batalha,27,-9.6742,-37.133,3.8,Batalha,2700706
Batatais,35,-20.8929,-47.5921,2.36,Batatais,3505906
Batayporã,50,-22.2944,-53.2705,3.08,Batayporã,5002001
Baturité,23,-4.32598,-38.8812,5.93,Baturité,2302107
Bauru,35,-22.3246,-49.0871,1.93,Bauru,3506003
Bayeux,25,-7.1238,-34.9293,3.97,Bayeux,2501807
Bebedouro,35,-20.9491,-48.4791,2.5,Bebedouro,3506102
Beberibe,23,-4.17741,-38.1271,3.54,Beberibe,2302206
Bela Cruz,23,-3.04996,-40.1671,3.8,Bela Cruz,2302305
Bela Vista,50,-22.1073,-56.5263,2.7,Bela Vista,5002100
Bela Vista da Caroba,41,-25.8842,-53.6725,3.43,Bela Vista da Caroba,4102752
Bela Vista de Goiás,52,-16.9693,-48.9513,2.77,Bela Vista de Goiás,5203302
Bela Vista de Minas,31,-19.8302,-43.0922,2.02,Bela Vista de Minas,3106002
Bela Vista do Maranhão,21,-3.72618,-45.3075,2.82,Bela Vista do Maranhão,2101772
Bela Vista do Paraíso,41,-22.9937,-51.1927,2.27,Bela Vista do Paraíso,4102802
Bela Vista do Piauí,22,-7.98809,-41.8675,3.51,Bela Vista do Piauí,2201556
Bela Vista do Toldo,42,-26.2746,-50.4664,10.0,Bela Vista do Toldo,4202131
Belágua,21,-3.15485,-43.5122,2.99,Belágua,2101731
Belém,15,-1.4554,-48.4898,2.1,Belém,1501402
Belém,15,-1.4554,-48.4898,2.1,Belém,2501906
Belém,15,-1.4554,-48.4898,2.1,Belém,2700805
Belém,25,-6.74261,-35.5166,3.46,Belém,1501402
Belém,25,-6.74261,-35.5166,3.46,Belém,2501906
Belém,25,-6.74261,-35.5166,3.46,Belém,2700805
Belém,27,-9.57047,-36.4904,7.3,Belém,1501402
Belém,27,-9.57047,-36.4904,7.3,Belém,2501906
Belém,27,-9.57047,-36.4904,7.3,Belém,2700805
Belém de Maria,26,-8.62504,-35.8335,6.37,Belém de Maria,2601508
Belém do Brejo do Cruz,25,-6.18515,-37.5348,3.6,Belém do Brejo do Cruz,2502003
Belém do Piauí,22,-7.36652,-40.9688,3.42,Belém do Piauí,2201572
Belém do São Francisco,26,-8.75046,-38.9623,2.99,Belém do São Francisco,2601607
Belford Roxo,33,-22.764,-43.3992,4.0,Belford Roxo,3300456
Belmiro Braga,31,-21.944,-43.4084,2.3,Belmiro Braga,3106101
Belmonte,42,-26.843,-53.5758,4.94,Belmonte,4202156
Belmonte,42,-26.843,-53.5758,4.94,Belmonte,2903409
Belmonte,29,-15.8608,-38.8758,2.48,Belmonte,4202156
Belmonte,29,-15.8608,-38.8758,2.48,Belmonte,2903409
Belo Campo,29,-15.0334,-41.2652,2.27,Belo Campo,2903508
Belo Horizonte,31,-19.9102,-43.9266,2.54,Belo Horizonte,3106200
Belo Jardim,26,-8.3313,-36.4258,4.9,Belo Jardim,2601706
Belo Monte,27,-9.82272,-37.277,2.78,Belo Monte,2700904
Belo Oriente,31,-19.2199,-42.4828,2.07,Belo Oriente,3106309
Belo Vale,31,-20.4077,-44.0275,1.26,Belo Vale,3106408
Belterra,15,-2.63609,-54.9374,2.16,Belterra,1501451
Beneditinos,22,-5.45676,-42.3638,3.31,Beneditinos,2201606
Benedito Leite,21,-7.21037,-44.5577,3.42,Benedito Leite,2101806
Benedito Novo,42,-26.781,-49.3593,10.0,Benedito Novo,4202206
Benevides,15,-1.36183,-48.2434,2.05,Benevides,1501501
Benjamin Constant,13,-4.37768,-70.0342,6.16,Benjamin Constant,1300607
Benjamin Constant do Sul,43,-27.5086,-52.5995,3.3,Benjamin Constant do Sul,4302055
Bento de Abreu,35,-21.2686,-50.814,1.96,Bento de Abreu,3506201
Bento Fernandes,24,-5.69906,-35.813,3.49,Bento Fernandes,2401602
Bento Gonçalves,43,-29.1662,-51.5165,2.79,Bento Gonçalves,4302105
Bequimão,21,-2.44162,-44.7842,2.94,Bequimão,2101905
Berilo,31,-16.9567,-42.4606,2.54,Berilo,3106507
Berizal,31,-15.61,-41.7432,2.59,Berizal,3106655
Bernardino Batista,25,-6.44572,-38.5521,3.74,Bernardino Batista,2502052
Bernardino de Campos,35,-23.0164,-49.4679,2.5,Bernardino de Campos,3506300
Bernardo do Mearim,21,-4.62666,-44.7608,3.14,Bernardo do Mearim,2101939
Bernardo Sayão,17,-7.87481,-48.8893,3.02,Bernardo Sayão,1703206
Bertioga,35,-23.8486,-46.1396,2.59,Bertioga,3506359
Bertolínia,22,-7.63338,-43.9498,3.83,Bertolínia,2201705
Bertópolis,31,-17.059,-40.58,1.5,Bertópolis,3106606
Beruri,13,-3.89874,-61.3616,2.62,Beruri,1300631
Betânia,26,-8.26787,-38.0345,3.42,Betânia,2601805
Betânia do Piauí,22,-8.14376,-40.7989,3.86,Betânia do Piauí,2201739
Betim,31,-19.9668,-44.2008,2.19,Betim,3106705
Bezerros,26,-8.2328,-35.796,4.17,Bezerros,2601904
Bias Fortes,31,-21.602,-43.7574,1.67,Bias Fortes,3106804
Bicas,31,-21.7232,-43.056,3.02,Bicas,3106903
Biguaçu,42,-27.496,-48.6598,6.11,Biguaçu,4202305
Bilac,35,-21.404,-50.4746,1.98,Bilac,3506409
Biquinhas,31,-18.7754,-45.4974,1.96,Biquinhas,3107000
Birigui,35,-21.291,-50.3432,2.1,Birigui,3506508
Biritiba-Mirim,35,-23.5698,-46.0407,3.63,Biritiba-Mirim,3506607
Biritinga,29,-11.6072,-38.8051,2.54,Biritinga,2903607
Bituruna,41,-26.1607,-51.5518,10.0,Bituruna,4102901
Blumenau,42,-26.9155,-49.0709,8.03,Blumenau,4202404
Boa Esperança,41,-24.2467,-52.7876,2.92,Boa Esperança,4103008
Boa Esperança,41,-24.2467,-52.7876,2.92,Boa Esperança,3107109
Boa Esperança,41,-24.2467,-52.7876,2.92,Boa Esperança,3201001
Boa Esperança,31,-21.0927,-45.5612,1.96,Boa Esperança,4103008
Boa Esperança,31,-21.0927,-45.5612,1.96,Boa Esperança,3107109
Boa Esperança,31,-21.0927,-45.5612,1.96,Boa Esperança,3201001
Boa Esperança,32,-18.5395,-40.3025,2.16,Boa Esperança,4103008
Boa Esperança,32,-18.5395,-40.3025,2.16,Boa Esperança,3107109
Boa Esperança,32,-18.5395,-40.3025,2.16,Boa Esperança,3201001
Boa Esperança do Iguaçu,41,-25.6324,-53.2108,3.6,Boa Esperança do Iguaçu,4103024
Boa Esperança do Sul,35,-21.9918,-48.3906,2.27,Boa Esperança do Sul,3506706
Boa Hora,22,-4.41404,-42.1357,3.02,Boa Hora,2201770
Boa Nova,29,-14.3598,-40.2064,2.25,Boa Nova,2903706
Boa Ventura,25,-7.40982,-38.2113,3.71,Boa Ventura,2502102
Boa Ventura de São Roque,41,-24.8688,-51.6276,3.35,Boa Ventura de São Roque,4103040
Boa Viagem,23,-5.11258,-39.7337,3.17,Boa Viagem,2302404
Boa Vista,14,2.82384,-60.6753,3.35,Boa Vista,1400100
Boa Vista,14,2.82384,-60.6753,3.35,Boa Vista,2502151
Boa Vista,25,-7.26365,-36.2357,3.36,Boa Vista,1400100
Boa Vista,25,-7.26365,-36.2357,3.36,Boa Vista,2502151
Boa Vista da Aparecida,41,-25.4308,-53.4117,4.46,Boa Vista da Aparecida,4103057
Boa Vista das Missões,43,-27.6671,-53.3102,3.06,Boa Vista das Missões,4302154
Boa Vista do Buricá,43,-27.6693,-54.1082,2.91,Boa Vista do Buricá,4302204
Boa Vista do Cadeado,43,-28.5791,-53.8108,3.31,Boa Vista do Cadeado,4302220
Boa Vista do Gurupi,21,-1.77614,-46.3002,3.18,Boa Vista do Gurupi,2101970
Boa Vista do Incra,43,-28.8185,-53.391,2.79,Boa Vista do Incra,4302238
Boa Vista do Ramos,13,-2.97409,-57.5873,2.82,Boa Vista do Ramos,1300680
Boa Vista do Sul,43,-29.3544,-51.6687,3.28,Boa Vista do Sul,4302253
Boa Vista do Tupim,29,-12.6498,-40.6064,2.16,Boa Vista do Tupim,2903805
Boca da Mata,27,-9.64308,-36.2125,6.74,Boca da Mata,2701001
Boca do Acre,13,-8.74232,-67.3919,10.0,Boca do Acre,1300706
Bocaina,22,-6.94124,-41.3168,3.74,Bocaina,2201804
Bocaina,22,-6.94124,-41.3168,3.74,Bocaina,3506805
Bocaina,35,-22.1365,-48.523,2.13,Bocaina,2201804
Bocaina,35,-22.1365,-48.523,2.13,Bocaina,3506805
Bocaina de Minas,31,-22.1697,-44.3972,1.82,Bocaina de Minas,3107208
Bocaina do Sul,42,-27.7455,-49.9423,10.0,Bocaina do Sul,4202438
Bocaiúva,31,-17.1135,-43.8104,3.37,Bocaiúva,3107307
Bocaiúva do Sul,41,-25.2066,-49.1141,3.11,Bocaiúva do Sul,4103107
Bodó,24,-5.98027,-36.4167,5.24,Bodó,2401651
Bodocó,26,-7.77759,-39.9338,3.28,Bodocó,2602001
Bodoquena,50,-20.537,-56.7127,3.26,Bodoquena,5002159
Bofete,35,-23.1055,-48.2582,3.02,Bofete,3506904
Boituva,35,-23.2855,-47.6786,2.77,Boituva,3507001
Bom Conselho,26,-9.16919,-36.6857,4.96,Bom Conselho,2602100
Bom Despacho,31,-19.7386,-45.2622,1.96,Bom Despacho,3107406
Bom Jardim,33,-22.1545,-42.4251,2.42,Bom Jardim,3300506
Bom Jardim,33,-22.1545,-42.4251,2.42,Bom Jardim,2602209
Bom Jardim,33,-22.1545,-42.4251,2.42,Bom Jardim,2102002
Bom Jardim,26,-7.79695,-35.5784,3.4,Bom Jardim,3300506
Bom Jardim,26,-7.79695,-35.5784,3.4,Bom Jardim,2602209
Bom Jardim,26,-7.79695,-35.5784,3.4,Bom Jardim,2102002
Bom Jardim,21,-3.54129,-45.606,3.31,Bom Jardim,3300506
Bom Jardim,21,-3.54129,-45.606,3.31,Bom Jardim,2602209
Bom Jardim,21,-3.54129,-45.606,3.31,Bom Jardim,2102002
Bom Jardim da Serra,42,-28.3377,-49.6373,10.0,Bom Jardim da Serra,4202503
Bom Jardim de Goiás,52,-16.2063,-52.1728,2.56,Bom Jardim de Goiás,5203401
Bom Jardim de Minas,31,-21.9479,-44.1885,1.82,Bom Jardim de Minas,3107505
Bom Jesus,42,-26.7326,-52.3919,8.3,Bom Jesus,4202537
Bom Jesus,42,-26.7326,-52.3919,8.3,Bom Jesus,4302303
Bom Jesus,42,-26.7326,-52.3919,8.3,Bom Jesus,2201903
Bom Jesus,42,-26.7326,-52.3919,8.3,Bom Jesus,2401701
Bom Jesus,42,-26.7326,-52.3919,8.3,Bom Jesus,2502201
Bom Jesus,43,-28.6697,-50.4295,4.8,Bom Jesus,4202537
Bom Jesus,43,-28.6697,-50.4295,4.8,Bom Jesus,4302303
Bom Jesus,43,-28.6697,-50.4295,4.8,Bom Jesus,2201903
Bom Jesus,43,-28.6697,-50.4295,4.8,Bom Jesus,2401701
Bom Jesus,43,-28.6697,-50.4295,4.8,Bom Jesus,2502201
Bom Jesus,22,-9.07124,-44.359,2.85,Bom Jesus,4202537
Bom Jesus,22,-9.07124,-44.359,2.85,Bom Jesus,4302303
Bom Jesus,22,-9.07124,-44.359,2.85,Bom Jesus,2201903
Bom Jesus,22,-9.07124,-44.359,2.85,Bom Jesus,2401701
Bom Jesus,22,-9.07124,-44.359,2.85,Bom Jesus,2502201
Bom Jesus,24,-5.98648,-35.5792,3.34,Bom Jesus,4202537
Bom Jesus,24,-5.98648,-35.5792,3.34,Bom Jesus,4302303
Bom Jesus,24,-5.98648,-35.5792,3.34,Bom Jesus,2201903
Bom Jesus,24,-5.98648,-35.5792,3.34,Bom Jesus,2401701
Bom Jesus,24,-5.98648,-35.5792,3.34,Bom Jesus,2502201
Bom Jesus,25,-6.81601,-38.6453,3.34,Bom Jesus,4202537
Bom Jesus,25,-6.81601,-38.6453,3.34,Bom Jesus,4302303
Bom Jesus,25,-6.81601,-38.6453,3.34,Bom Jesus,2201903
Bom Jesus,25,-6.81601,-38.6453,3.34,Bom Jesus,2401701
Bom Jesus,25,-6.81601,-38.6453,3.34,Bom Jesus,2502201
Bom Jesus da Lapa,29,-13.2506,-43.4108,2.02,Bom Jesus da Lapa,2903904
Bom Jesus da Penha,31,-21.0148,-46.5174,2.16,Bom Jesus da Penha,3107604
Bom Jesus da Serra,29,-14.3663,-40.5126,2.5,Bom Jesus da Serra,2903953
Bom Jesus das Selvas,21,-4.47638,-46.8641,3.17,Bom Jesus das Selvas,2102036
Bom Jesus de Goiás,52,-18.2173,-49.74,3.14,Bom Jesus de Goiás,5203500
Bom Jesus do Amparo,31,-19.7054,-43.4782,2.68,Bom Jesus do Amparo,3107703
Bom Jesus do Araguaia,51,-12.1706,-51.5032,2.91,Bom Jesus do Araguaia,5101852
Bom Jesus do Galho,31,-19.836,-42.3165,1.9,Bom Jesus do Galho,3107802
Bom Jesus do Itabapoana,33,-21.1449,-41.6822,1.58,Bom Jesus do Itabapoana,3300605
Bom Jesus do Norte,32,-21.1173,-41.6731,1.58,Bom Jesus do Norte,3201100
Bom Jesus do Oeste,42,-26.6927,-53.0967,6.63,Bom Jesus do Oeste,4202578
Bom Jesus do Sul,41,-26.1958,-53.5955,5.21,Bom Jesus do Sul,4103156
Bom Jesus do Tocantins,15,-5.0424,-48.6047,2.79,Bom Jesus do Tocantins,1501576
Bom Jesus do Tocantins,15,-5.0424,-48.6047,2.79,Bom Jesus do Tocantins,1703305
Bom Jesus do Tocantins,17,-8.96306,-48.165,2.7,Bom Jesus do Tocantins,1501576
Bom Jesus do Tocantins,17,-8.96306,-48.165,2.7,Bom Jesus do Tocantins,1703305
Bom Jesus dos Perdões,35,-23.1356,-46.4675,3.31,Bom Jesus dos Perdões,3507100
Bom Lugar,21,-4.37311,-45.0326,3.11,Bom Lugar,2102077
Bom Princípio,43,-29.4856,-51.3548,3.02,Bom Princípio,4302352
Bom Princípio do Piauí,22,-3.19631,-41.6403,2.56,Bom Princípio do Piauí,2201919
Bom Progresso,43,-27.5399,-53.8716,2.79,Bom Progresso,4302378
Bom Repouso,31,-22.4675,-46.144,2.13,Bom Repouso,3107901
Bom Retiro,42,-27.799,-49.487,10.0,Bom Retiro,4202602
Bom Retiro do Sul,43,-29.6071,-51.9456,2.07,Bom Retiro do Sul,4302402
Bom Sucesso,31,-21.0329,-44.7537,1.1,Bom Sucesso,3108008
Bom Sucesso,31,-21.0329,-44.7537,1.1,Bom Sucesso,4103206
Bom Sucesso,31,-21.0329,-44.7537,1.1,Bom Sucesso,2502300
Bom Sucesso,41,-23.7063,-51.7671,2.16,Bom Sucesso,3108008
Bom Sucesso,41,-23.7063,-51.7671,2.16,Bom Sucesso,4103206
Bom Sucesso,41,-23.7063,-51.7671,2.16,Bom Sucesso,2502300
Bom Sucesso,25,-6.44176,-37.9234,3.28,Bom Sucesso,3108008
Bom Sucesso,25,-6.44176,-37.9234,3.28,Bom Sucesso,4103206
Bom Sucesso,25,-6.44176,-37.9234,3.28,Bom Sucesso,2502300
Bom Sucesso de Itararé,35,-24.3155,-49.1451,2.25,Bom Sucesso de Itararé,3507159
Bom Sucesso do Sul,41,-26.0731,-52.8353,5.82,Bom Sucesso do Sul,4103222
Bombinhas,42,-27.1382,-48.5146,8.59,Bombinhas,4202453
Bonfim,14,3.36161,-59.8333,2.51,Bonfim,1400159
Bonfim,14,3.36161,-59.8333,2.51,Bonfim,3108107
Bonfim,31,-20.3302,-44.2366,1.7,Bonfim,1400159
Bonfim,31,-20.3302,-44.2366,1.7,Bonfim,3108107
Bonfim do Piauí,22,-9.1605,-42.8865,3.11,Bonfim do Piauí,2201929
Bonfinópolis,52,-16.6173,-48.9616,3.2,Bonfinópolis,5203559
Bonfinópolis de Minas,31,-16.568,-45.9839,2.99,Bonfinópolis de Minas,3108206
Boninal,29,-12.7069,-41.8286,3.42,Boninal,2904001
Bonito,26,-8.47163,-35.7292,3.94,Bonito,2602308
Bonito,26,-8.47163,-35.7292,3.94,Bonito,2904050
Bonito,26,-8.47163,-35.7292,3.94,Bonito,1501600
Bonito,26,-8.47163,-35.7292,3.94,Bonito,5002209
Bonito,29,-11.9668,-41.2647,3.57,Bonito,2602308
Bonito,29,-11.9668,-41.2647,3.57,Bonito,2904050
Bonito,29,-11.9668,-41.2647,3.57,Bonito,1501600
Bonito,29,-11.9668,-41.2647,3.57,Bonito,5002209
Bonito,15,-1.36745,-47.3066,2.53,Bonito,2602308
Bonito,15,-1.36745,-47.3066,2.53,Bonito,2904050
Bonito,15,-1.36745,-47.3066,2.53,Bonito,1501600
Bonito,15,-1.36745,-47.3066,2.53,Bonito,5002209
Bonito,50,-21.1261,-56.4836,3.28,Bonito,2602308
Bonito,50,-21.1261,-56.4836,3.28,Bonito,2904050
Bonito,50,-21.1261,-56.4836,3.28,Bonito,1501600
Bonito,50,-21.1261,-56.4836,3.28,Bonito,5002209
Bonito de Minas,31,-15.3231,-44.7543,2.56,Bonito de Minas,3108255
Bonito de Santa Fé,25,-7.31341,-38.5133,3.66,Bonito de Santa Fé,2502409
Bonópolis,52,-13.6329,-49.8106,1.93,Bonópolis,5203575
Boqueirão,25,-7.487,-36.1309,3.45,Boqueirão,2502508
Boqueirão do Leão,43,-29.3046,-52.4284,3.27,Boqueirão do Leão,4302451
Boqueirão do Piauí,22,-4.48181,-42.1212,2.94,Boqueirão do Piauí,2201945
Boquim,28,-11.1397,-37.6195,2.45,Boquim,2800670
Boquira,29,-12.8205,-42.7324,3.31,Boquira,2904100
Borá,35,-22.2696,-50.5409,2.19,Borá,3507209
Boracéia,35,-22.1926,-48.7808,2.34,Boracéia,3507308
Borba,13,-4.39154,-59.5874,4.62,Borba,1300805
Borborema,25,-6.80199,-35.6187,3.46,Borborema,2502706
Borborema,25,-6.80199,-35.6187,3.46,Borborema,3507407
Borborema,35,-21.6214,-49.0741,2.1,Borborema,2502706
Borborema,35,-21.6214,-49.0741,2.1,Borborema,3507407
Borda da Mata,31,-22.2707,-46.1653,1.73,Borda da Mata,3108305
Borebi,35,-22.5728,-48.9707,2.16,Borebi,3507456
Borrazópolis,41,-23.9366,-51.5875,2.34,Borrazópolis,4103305
Bossoroca,43,-28.7291,-54.9035,2.99,Bossoroca,4302501
Botelhos,31,-21.6412,-46.391,1.87,Botelhos,3108404
Botucatu,35,-22.8837,-48.4437,2.3,Botucatu,3507506
Botumirim,31,-16.8657,-43.0086,2.94,Botumirim,3108503
Botuporã,29,-13.3772,-42.5163,3.08,Botuporã,2904209
Botuverá,42,-27.2007,-49.0689,8.55,Botuverá,4202701
Bozano,43,-28.3659,-53.772,3.2,Bozano,4302584
Braço do Norte,42,-28.2681,-49.1701,6.72,Braço do Norte,4202800
Braço do Trombudo,42,-27.3586,-49.8821,10.0,Braço do Trombudo,4202859
Braga,43,-27.6173,-53.7405,2.82,Braga,4302600
Bragança,15,-1.06126,-46.7826,2.87,Bragança,1501709
Bragança Paulista,35,-22.9527,-46.5419,2.91,Bragança Paulista,3507605
Braganey,41,-24.8173,-53.1218,3.93,Braganey,4103354
Branquinha,27,-9.23342,-36.0162,7.44,Branquinha,2701100
Brás Pires,31,-20.8419,-43.2406,2.82,Brás Pires,3108701
Brasil Novo,15,-3.29792,-52.534,2.39,Brasil Novo,1501725
Brasilândia,50,-21.2544,-52.0365,2.25,Brasilândia,5002308
Brasilândia de Minas,31,-16.9999,-46.0081,2.82,Brasilândia de Minas,3108552
Brasilândia do Sul,41,-24.1978,-53.5275,5.92,Brasilândia do Sul,4103370
Brasilândia do Tocantins,17,-8.38918,-48.4822,3.4,Brasilândia do Tocantins,1703602
Brasiléia,12,-10.995,-68.7497,10.0,Brasiléia,1200104
Brasileira,22,-4.1337,-41.7859,3.22,Brasileira,2201960
Brasília,53,-15.7795,-47.9297,3.63,Brasília,5300108
Brasília de Minas,31,-16.2104,-44.4299,2.91,Brasília de Minas,3108602
Brasnorte,51,-12.1474,-57.9833,1.73,Brasnorte,5101902
Braúna,35,-21.499,-50.3175,2.1,Braúna,3507704
Braúnas,31,-19.0562,-42.7099,2.13,Braúnas,3108800
Brazabrantes,52,-16.4281,-49.3863,2.13,Brazabrantes,5203609
Brazópolis,31,-22.4743,-45.6166,1.44,Brazópolis,3108909
Brejão,26,-9.02915,-36.566,3.98,Brejão,2602407
Brejetuba,32,-20.1395,-41.2954,2.22,Brejetuba,3201159
Brejinho,24,-6.18566,-35.3591,3.22,Brejinho,2401800
Brejinho,24,-6.18566,-35.3591,3.22,Brejinho,2602506
Brejinho,26,-7.34694,-37.2865,4.35,Brejinho,2401800
Brejinho,26,-7.34694,-37.2865,4.35,Brejinho,2602506
Brejinho de Nazaré,17,-11.0058,-48.5683,3.46,Brejinho de Nazaré,1703701
Brejo,21,-3.67796,-42.7527,2.88,Brejo,2102101
Brejo Alegre,35,-21.1651,-50.1861,2.07,Brejo Alegre,3507753
Brejo da Madre de Deus,26,-8.14933,-36.3741,3.86,Brejo da Madre de Deus,2602605
Brejo de Areia,21,-4.334,-45.581,3.37,Brejo de Areia,2102150
Brejo do Cruz,25,-6.34185,-37.4943,3.28,Brejo do Cruz,2502805
Brejo do Piauí,22,-8.20314,-42.8229,3.14,Brejo do Piauí,2201988
Brejo dos Santos,25,-6.37065,-37.8253,3.51,Brejo dos Santos,2502904
Brejo Grande,28,-10.4297,-36.4611,5.81,Brejo Grande,2800704
Brejo Grande do Araguaia,15,-5.69822,-48.4103,2.79,Brejo Grande do Araguaia,1501758
Brejo Santo,23,-7.48469,-38.9799,3.92,Brejo Santo,2302503
Brejões,29,-13.1039,-39.7988,2.94,Brejões,2904308
Brejolândia,29,-12.4815,-43.9679,3.26,Brejolândia,2904407
Breu Branco,15,-3.77191,-49.5735,2.56,Breu Branco,1501782
Breves,15,-1.68036,-50.4791,2.36,Breves,1501808
Britânia,52,-15.2428,-51.1602,1.44,Britânia,5203807
Brochier,43,-29.5501,-51.5945,2.5,Brochier,4302659
Brodowski,35,-20.9845,-47.6572,2.36,Brodowski,3507803
Brotas,35,-22.2795,-48.1251,2.07,Brotas,3507902
Brotas de Macaúbas,29,-11.9915,-42.6326,5.3,Brotas de Macaúbas,2904506
Brumadinho,31,-20.151,-44.2007,2.19,Brumadinho,3109006
Brumado,29,-14.2021,-41.6696,2.77,Brumado,2904605
Brunópolis,42,-27.3058,-50.8684,10.0,Brunópolis,4202875
Brusque,42,-27.0977,-48.9107,8.12,Brusque,4202909
Bueno Brandão,31,-22.4383,-46.3491,1.96,Bueno Brandão,3109105
Buenópolis,31,-17.8744,-44.1775,3.11,Buenópolis,3109204
Buenos Aires,26,-7.72449,-35.3182,5.16,Buenos Aires,2602704
Buerarema,29,-14.9595,-39.3028,2.54,Buerarema,2904704
Bugre,31,-19.4231,-42.2552,1.98,Bugre,3109253
Buíque,26,-8.61954,-37.1606,3.66,Buíque,2602803
Bujari,12,-9.81528,-67.955,9.88,Bujari,1200138
Bujaru,15,-1.51762,-48.0381,2.07,Bujaru,1501907
Buri,35,-23.7977,-48.5958,2.77,Buri,3508009
Buritama,35,-21.0661,-50.1475,2.07,Buritama,3508108
Buriti,21,-3.94169,-42.9179,3.06,Buriti,2102200
Buriti Alegre,52,-18.1378,-49.0404,3.92,Buriti Alegre,5203906
Buriti Bravo,21,-5.83239,-43.8353,3.74,Buriti Bravo,2102309
Buriti de Goiás,52,-16.1792,-50.4302,1.87,Buriti de Goiás,5203939
Buriti do Tocantins,17,-5.31448,-48.2271,3.2,Buriti do Tocantins,1703800
Buriti dos Lopes,22,-3.18259,-41.8695,3.69,Buriti dos Lopes,2202000
Buriti dos Montes,22,-5.30584,-41.0933,4.35,Buriti dos Montes,2202026
Buriticupu,21,-4.32375,-46.4409,3.69,Buriticupu,2102325
Buritinópolis,52,-14.4772,-46.4076,2.62,Buritinópolis,5203962
Buritirama,29,-10.7171,-43.6302,3.51,Buritirama,2904753
Buritirana,21,-5.59823,-47.0131,3.17,Buritirana,2102358
Buritis,11,-10.1943,-63.8324,8.35,Buritis,1100452
Buritis,11,-10.1943,-63.8324,8.35,Buritis,3109303
Buritis,31,-15.6218,-46.4221,2.62,Buritis,1100452
Buritis,31,-15.6218,-46.4221,2.62,Buritis,3109303
Buritizal,35,-20.1911,-47.7096,2.16,Buritizal,3508207
Buritizeiro,31,-17.3656,-44.9606,2.97,Buritizeiro,3109402
Butiá,43,-30.1179,-51.9601,2.34,Butiá,4302709
Caapiranga,13,-3.31537,-61.2206,3.04,Caapiranga,1300839
Caaporã,25,-7.51351,-34.9055,3.97,Caaporã,2503001
Caarapó,50,-22.6368,-54.8209,3.23,Caarapó,5002407
Caatiba,29,-14.9699,-40.4092,2.34,Caatiba,2904803
Cabaceiras,25,-7.48899,-36.287,3.35,Cabaceiras,2503100
Cabaceiras do Paraguaçu,29,-12.5317,-39.1902,2.3,Cabaceiras do Paraguaçu,2904852
Cabeceira Grande,31,-16.0335,-47.0862,2.54,Cabeceira Grande,3109451
Cabeceiras,52,-15.7995,-46.9265,2.5,Cabeceiras,5204003
Cabeceiras do Piauí,22,-4.4773,-42.3069,3.2,Cabeceiras do Piauí,2202059
Cabedelo,25,-6.98731,-34.8284,3.86,Cabedelo,2503209
Cabixi,11,-13.4945,-60.552,3.62,Cabixi,1100031
Cabo de Santo Agostinho,26,-8.28218,-35.0253,5.79,Cabo de Santo Agostinho,2602902
Cabo Frio,33,-22.8894,-42.0286,2.74,Cabo Frio,3300704
Cabo Verde,31,-21.4699,-46.3919,2.1,Cabo Verde,3109501
Cabrália Paulista,35,-22.4576,-49.3393,2.05,Cabrália Paulista,3508306
Cabreúva,35,-23.3053,-47.1362,3.34,Cabreúva,3508405
Cabrobó,26,-8.50548,-39.3094,3.14,Cabrobó,2603009
Caçador,42,-26.7757,-51.012,8.93,Caçador,4203006
Caçapava,35,-23.0992,-45.7076,2.77,Caçapava,3508504
Caçapava do Sul,43,-30.5144,-53.4827,2.77,Caçapava do Sul,4302808
Cacaulândia,11,-10.349,-62.9043,5.24,Cacaulândia,1100601
Cacequi,43,-29.8883,-54.822,2.56,Cacequi,4302907
Cáceres,51,-16.0764,-57.6818,2.82,Cáceres,5102504
Cachoeira,29,-12.5994,-38.9587,2.34,Cachoeira,2904902
Cachoeira Alta,52,-18.7618,-50.9432,2.54,Cachoeira Alta,5204102
Cachoeira da Prata,31,-19.521,-44.4544,2.07,Cachoeira da Prata,3109600
Cachoeira de Goiás,52,-16.6635,-50.646,1.73,Cachoeira de Goiás,5204201
Cachoeira de Minas,31,-22.3511,-45.7809,1.38,Cachoeira de Minas,3109709
Cachoeira de Pajeú,31,-15.9688,-41.4948,2.5,Cachoeira de Pajeú,3102704
Cachoeira do Arari,15,-1.01226,-48.9503,2.79,Cachoeira do Arari,1502004
Cachoeira do Piriá,15,-1.75974,-46.5459,2.87,Cachoeira do Piriá,1501956
Cachoeira do Sul,43,-30.033,-52.8928,2.22,Cachoeira do Sul,4303004
Cachoeira dos Índios,25,-6.91353,-38.676,3.34,Cachoeira dos Índios,2503308
Cachoeira Dourada,52,-18.4859,-49.4766,3.14,Cachoeira Dourada,5204250
Cachoeira Dourada,52,-18.4859,-49.4766,3.14,Cachoeira Dourada,3109808
Cachoeira Dourada,31,-18.5161,-49.5039,3.14,Cachoeira Dourada,5204250
Cachoeira Dourada,31,-18.5161,-49.5039,3.14,Cachoeira Dourada,3109808
Cachoeira Grande,21,-2.93074,-44.0528,2.48,Cachoeira Grande,2102374
Cachoeira Paulista,35,-22.6665,-45.0154,2.3,Cachoeira Paulista,3508603
Cachoeiras de Macacu,33,-22.4658,-42.6523,2.88,Cachoeiras de Macacu,3300803
Cachoeirinha,17,-6.1156,-47.9234,2.91,Cachoeirinha,1703826
Cachoeirinha,17,-6.1156,-47.9234,2.91,Cachoeirinha,2603108
Cachoeirinha,17,-6.1156,-47.9234,2.91,Cachoeirinha,4303103
Cachoeirinha,26,-8.48668,-36.2402,4.31,Cachoeirinha,1703826
Cachoeirinha,26,-8.48668,-36.2402,4.31,Cachoeirinha,2603108
Cachoeirinha,26,-8.48668,-36.2402,4.31,Cachoeirinha,4303103
Cachoeirinha,43,-29.9472,-51.1016,2.65,Cachoeirinha,1703826
Cachoeirinha,43,-29.9472,-51.1016,2.65,Cachoeirinha,2603108
Cachoeirinha,43,-29.9472,-51.1016,2.65,Cachoeirinha,4303103
Cachoeiro de Itapemirim,32,-20.8462,-41.1198,2.22,Cachoeiro de Itapemirim,3201209
Cacimba de Areia,25,-7.12128,-37.1563,3.46,Cacimba de Areia,2503407
Cacimba de Dentro,25,-6.6386,-35.7778,3.71,Cacimba de Dentro,2503506
Cacimbas,25,-7.20721,-37.0604,4.32,Cacimbas,2503555
Cacimbinhas,27,-9.40121,-36.9911,4.94,Cacimbinhas,2701209
Cacique Doble,43,-27.767,-51.6597,4.35,Cacique Doble,4303202
Cacoal,11,-11.4343,-61.4562,6.51,Cacoal,1100049
Caconde,35,-21.528,-46.6437,1.93,Caconde,3508702
Caçu,52,-18.5594,-51.1328,2.42,Caçu,5204300
Caculé,29,-14.5003,-42.2229,3.49,Caculé,2905008
Caém,29,-11.0677,-40.432,2.74,Caém,2905107
Caetanópolis,31,-19.2971,-44.4189,2.07,Caetanópolis,3109907
Caetanos,29,-14.3347,-40.9175,1.98,Caetanos,2905156
Caeté,31,-19.8826,-43.6704,2.5,Caeté,3110004
Caetés,26,-8.7803,-36.6268,4.12,Caetés,2603207
Caetité,29,-14.0684,-42.4861,4.43,Caetité,2905206
Cafarnaum,29,-11.6914,-41.4688,2.97,Cafarnaum,2905305
Cafeara,41,-22.789,-51.7142,2.45,Cafeara,4103404
Cafelândia,35,-21.8031,-49.6092,1.98,Cafelândia,3508801
Cafelândia,35,-21.8031,-49.6092,1.98,Cafelândia,4103453
Cafelândia,41,-24.6189,-53.3207,3.79,Cafelândia,3508801
Cafelândia,41,-24.6189,-53.3207,3.79,Cafelândia,4103453
Cafezal do Sul,41,-23.9005,-53.5124,2.91,Cafezal do Sul,4103479
Caiabu,35,-22.0127,-51.2394,1.93,Caiabu,3508900
Caiana,31,-20.6956,-41.9292,2.36,Caiana,3110103
Caiapônia,52,-16.9539,-51.8091,2.27,Caiapônia,5204409
Caibaté,43,-28.2905,-54.6454,3.02,Caibaté,4303301
Caibi,42,-27.0741,-53.2458,3.77,Caibi,4203105
Caiçara,43,-27.2791,-53.4257,2.84,Caiçara,4303400
Caiçara,43,-27.2791,-53.4257,2.84,Caiçara,2503605
Caiçara,25,-6.62115,-35.4581,3.49,Caiçara,4303400
Caiçara,25,-6.62115,-35.4581,3.49,Caiçara,2503605
Caiçara do Norte,24,-5.07091,-36.0717,3.2,Caiçara do Norte,2401859
Caiçara do Rio do Vento,24,-5.76541,-35.9938,3.66,Caiçara do Rio do Vento,2401909
Caicó,24,-6.45441,-37.1067,3.26,Caicó,2402006
Caieiras,35,-23.3607,-46.7397,3.37,Caieiras,3509007
Cairu,29,-13.4904,-39.0465,2.5,Cairu,2905404
Caiuá,35,-21.8322,-51.9969,2.91,Caiuá,3509106
Cajamar,35,-23.355,-46.8781,3.37,Cajamar,3509205
Cajapió,21,-2.87326,-44.6741,2.45,Cajapió,2102408
Cajari,21,-3.32742,-45.0145,2.59,Cajari,2102507
Cajati,35,-24.7324,-48.1223,3.09,Cajati,3509254
Cajazeiras,25,-6.88004,-38.5577,3.26,Cajazeiras,2503704
Cajazeiras do Piauí,22,-6.79667,-42.3903,3.71,Cajazeiras do Piauí,2202075
Cajazeirinhas,25,-6.96016,-37.8009,2.96,Cajazeirinhas,2503753
Cajobi,35,-20.8773,-48.8063,2.54,Cajobi,3509304
Cajueiro,27,-9.3994,-36.1559,6.93,Cajueiro,2701308
Cajueiro da Praia,22,-2.93111,-41.3408,3.6,Cajueiro da Praia,2202083
Cajuri,31,-20.7903,-42.7925,3.17,Cajuri,3110202
Cajuru,35,-21.2749,-47.303,2.1,Cajuru,3509403
Calçado,26,-8.73108,-36.3366,3.84,Calçado,2603306
Calçoene,16,2.50475,-50.9512,2.59,Calçoene,1600204
Caldas,31,-21.9183,-46.3843,2.27,Caldas,3110301
Caldas Brandão,25,-7.1025,-35.3272,3.67,Caldas Brandão,2503803
Caldas Novas,52,-17.7441,-48.6246,3.31,Caldas Novas,5204508
Caldazinha,52,-16.7117,-49.0013,3.08,Caldazinha,5204557
Caldeirão Grande,29,-11.0208,-40.2956,2.73,Caldeirão Grande,2905503
Caldeirão Grande do Piauí,22,-7.3314,-40.6366,4.06,Caldeirão Grande do Piauí,2202091
Califórnia,41,-23.6566,-51.3574,2.39,Califórnia,4103503
Calmon,42,-26.5942,-51.095,10.0,Calmon,4203154
Calumbi,26,-7.93551,-38.1482,3.28,Calumbi,2603405
Camacan,29,-15.4142,-39.4919,2.68,Camacan,2905602
Camaçari,29,-12.6996,-38.3263,2.06,Camaçari,2905701
Camacho,31,-20.6294,-45.1593,2.3,Camacho,3110400
Camalaú,25,-7.88503,-36.8242,3.09,Camalaú,2503902
Camamu,29,-13.9398,-39.1071,2.25,Camamu,2905800
Camanducaia,31,-22.7515,-46.1494,2.22,Camanducaia,3110509
Camapuã,50,-19.5347,-54.0431,2.22,Camapuã,5002605
Camaquã,43,-30.8489,-51.8043,2.56,Camaquã,4303509
Camaragibe,26,-8.02351,-34.9782,4.43,Camaragibe,2603454
Camargo,43,-28.588,-52.2003,3.16,Camargo,4303558
Cambará,41,-23.0423,-50.0753,1.3,Cambará,4103602
Cambará do Sul,43,-29.0474,-50.1465,7.45,Cambará do Sul,4303608
Cambé,41,-23.2766,-51.2798,2.56,Cambé,4103701
Cambira,41,-23.589,-51.5792,2.39,Cambira,4103800
Camboriú,42,-27.0241,-48.6503,8.59,Camboriú,4203204
Cambuci,33,-21.5691,-41.9187,1.98,Cambuci,3300902
Cambuí,31,-22.6115,-46.0572,1.9,Cambuí,3110608
Cambuquira,31,-21.854,-45.2896,1.47,Cambuquira,3110707
Cametá,15,-2.24295,-49.4979,2.96,Cametá,1502103
Camocim,23,-2.9005,-40.8544,4.12,Camocim,2302602
Camocim de São Félix,26,-8.35865,-35.7653,3.99,Camocim de São Félix,2603504
Campanário,31,-18.2427,-41.7355,1.55,Campanário,3110806
Campanha,31,-21.836,-45.4004,1.82,Campanha,3110905
Campestre,31,-21.7079,-46.2381,2.1,Campestre,3111002
Campestre,31,-21.7079,-46.2381,2.1,Campestre,2701357
Campestre,27,-8.84723,-35.5685,6.28,Campestre,3111002
Campestre,27,-8.84723,-35.5685,6.28,Campestre,2701357
Campestre da Serra,43,-28.7926,-51.0941,4.17,Campestre da Serra,4303673
Campestre de Goiás,52,-16.7624,-49.695,2.13,Campestre de Goiás,5204607
Campestre do Maranhão,21,-6.17075,-47.3625,2.48,Campestre do Maranhão,2102556
Campina da Lagoa,41,-24.5893,-52.7976,5.18,Campina da Lagoa,4103909
Campina das Missões,43,-27.9888,-54.8416,3.02,Campina das Missões,4303707
Campina do Monte Alegre,35,-23.5895,-48.4758,2.74,Campina do Monte Alegre,3509452
Campina do Simão,41,-25.0802,-51.8237,4.75,Campina do Simão,4103958
Campina Grande,25,-7.22196,-35.8731,3.73,Campina Grande,2504009
Campina Grande do Sul,41,-25.3044,-49.0551,2.74,Campina Grande do Sul,4104006
Campina Verde,31,-19.5382,-49.4862,2.91,Campina Verde,3111101
Campinaçu,52,-13.787,-48.5704,2.99,Campinaçu,5204656
Campinápolis,51,-14.5162,-52.893,2.25,Campinápolis,5102603
Campinas,35,-22.9053,-47.0659,2.82,Campinas,3509502
Campinas do Piauí,22,-7.6593,-41.8775,3.57,Campinas do Piauí,2202109
Campinas do Sul,43,-27.7174,-52.6248,3.11,Campinas do Sul,4303806
Campinorte,52,-14.3137,-49.1511,2.88,Campinorte,5204706
Campo Alegre,42,-26.195,-49.2676,5.25,Campo Alegre,4203303
Campo Alegre,42,-26.195,-49.2676,5.25,Campo Alegre,2701407
Campo Alegre,27,-9.78451,-36.3525,5.95,Campo Alegre,4203303
Campo Alegre,27,-9.78451,-36.3525,5.95,Campo Alegre,2701407
Campo Alegre de Goiás,52,-17.6363,-47.7768,3.8,Campo Alegre de Goiás,5204805
Campo Alegre de Lourdes,29,-9.52221,-43.0126,2.88,Campo Alegre de Lourdes,2905909
Campo Alegre do Fidalgo,22,-8.38236,-41.8344,3.31,Campo Alegre do Fidalgo,2202117
Campo Azul,31,-16.5028,-44.8096,2.27,Campo Azul,3111150
Campo Belo,31,-20.8932,-45.2699,1.73,Campo Belo,3111200
Campo Belo do Sul,42,-27.8975,-50.7595,6.48,Campo Belo do Sul,4203402
Campo Bom,43,-29.6747,-51.0606,2.3,Campo Bom,4303905
Campo Bonito,41,-25.0294,-52.9939,4.73,Campo Bonito,4104055
Campo do Brito,28,-10.7392,-37.4954,2.74,Campo do Brito,2801009
Campo do Meio,31,-21.1127,-45.8273,1.76,Campo do Meio,3111309
Campo do Tenente,41,-25.98,-49.6844,5.12,Campo do Tenente,4104105
Campo Erê,42,-26.3931,-53.0856,4.69,Campo Erê,4203501
Campo Florido,31,-19.7631,-48.5716,2.91,Campo Florido,3111408
Campo Formoso,29,-10.5105,-40.32,3.8,Campo Formoso,2906006
Campo Grande,27,-9.95542,-36.7926,4.84,Campo Grande,2701506
Campo Grande,27,-9.95542,-36.7926,4.84,Campo Grande,5002704
Campo Grande,50,-20.4486,-54.6295,3.37,Campo Grande,2701506
Campo Grande,50,-20.4486,-54.6295,3.37,Campo Grande,5002704
Campo Grande do Piauí,22,-7.12827,-41.0315,3.4,Campo Grande do Piauí,2202133
Campo Largo,41,-25.4525,-49.529,5.21,Campo Largo,4104204
Campo Largo do Piauí,22,-3.80441,-42.64,2.88,Campo Largo do Piauí,2202174
Campo Limpo de Goiás,52,-16.2971,-49.0895,2.97,Campo Limpo de Goiás,5204854
Campo Limpo Paulista,35,-23.2078,-46.7889,3.37,Campo Limpo Paulista,3509601
Campo Magro,41,-25.3687,-49.4501,5.21,Campo Magro,4104253
Campo Maior,22,-4.8217,-42.1641,3.11,Campo Maior,2202208
Campo Mourão,41,-24.0463,-52.378,2.27,Campo Mourão,4104303
Campo Novo,43,-27.6792,-53.8052,2.82,Campo Novo,4304002
Campo Novo de Rondônia,11,-10.5712,-63.6266,8.28,Campo Novo de Rondônia,1100700
Campo Novo do Parecis,51,-13.6587,-57.8907,3.26,Campo Novo do Parecis,5102637
Campo Redondo,24,-6.23829,-36.1888,3.57,Campo Redondo,2402105
Campo Verde,51,-15.545,-55.1626,3.46,Campo Verde,5102678
Campos Altos,31,-19.6914,-46.1725,2.02,Campos Altos,3111507
Campos Belos,52,-13.035,-46.7681,2.88,Campos Belos,5204904
Campos Borges,43,-28.8871,-53.0008,3.31,Campos Borges,4304101
Campos de Júlio,51,-13.7242,-59.2858,2.97,Campos de Júlio,5102686
Campos do Jordão,35,-22.7296,-45.5833,2.7,Campos do Jordão,3509700
Campos dos Goytacazes,33,-21.7622,-41.3181,2.77,Campos dos Goytacazes,3301009
Campos Gerais,31,-21.237,-45.7569,1.76,Campos Gerais,3111606
Campos Lindos,17,-7.98956,-46.8645,3.46,Campos Lindos,1703842
Campos Novos,42,-27.4002,-51.2276,9.72,Campos Novos,4203600
Campos Novos Paulista,35,-22.602,-49.9987,2.07,Campos Novos Paulista,3509809
Campos Sales,23,-7.06761,-40.3687,3.51,Campos Sales,2302701
Campos Verdes,52,-14.2442,-49.6528,2.48,Campos Verdes,5204953
Camutanga,26,-7.40545,-35.2664,3.76,Camutanga,2603603
Cana Verde,31,-21.0232,-45.1801,1.33,Cana Verde,3111903
Canaã,31,-20.6869,-42.6167,2.97,Canaã,3111705
Canaã dos Carajás,15,-6.49659,-49.8776,2.54,Canaã dos Carajás,1502152
Canabrava do Norte,51,-11.0556,-51.8209,2.74,Canabrava do Norte,5102694
Cananéia,35,-25.0144,-47.9341,3.25,Cananéia,3509908
Canapi,27,-9.11932,-37.5967,2.8,Canapi,2701605
Canápolis,29,-13.0725,-44.201,2.94,Canápolis,2906105
Canápolis,29,-13.0725,-44.201,2.94,Canápolis,3111804
Canápolis,31,-18.7212,-49.2035,3.6,Canápolis,2906105
Canápolis,31,-18.7212,-49.2035,3.6,Canápolis,3111804
Canarana,29,-11.6858,-41.7677,3.4,Canarana,2906204
Canarana,29,-11.6858,-41.7677,3.4,Canarana,5102702
Canarana,51,-13.5515,-52.2705,2.13,Canarana,2906204
Canarana,51,-13.5515,-52.2705,2.13,Canarana,5102702
Canas,35,-22.7003,-45.0521,1.38,Canas,3509957
Canavieira,22,-7.68821,-43.7233,3.17,Canavieira,2202251
Canavieiras,29,-15.6722,-38.9536,2.48,Canavieiras,2906303
Candeal,29,-11.8049,-39.1203,2.27,Candeal,2906402
Candeias,29,-12.6716,-38.5472,2.13,Candeias,2906501
Candeias,29,-12.6716,-38.5472,2.13,Candeias,3112000
Candeias,31,-20.7692,-45.2765,1.98,Candeias,2906501
Candeias,31,-20.7692,-45.2765,1.98,Candeias,3112000
Candeias do Jamari,11,-8.7907,-63.7005,4.94,Candeias do Jamari,1100809
Candelária,43,-29.6684,-52.7895,2.13,Candelária,4304200
Candiba,29,-14.4097,-42.8667,5.27,Candiba,2906600
Cândido de Abreu,41,-24.5649,-51.3372,2.85,Cândido de Abreu,4104402
Cândido Godói,43,-27.9515,-54.7517,3.2,Cândido Godói,4304309
Cândido Mendes,21,-1.43265,-45.7161,3.23,Cândido Mendes,2102606
Cândido Mota,35,-22.7471,-50.3873,2.22,Cândido Mota,3510005
Cândido Rodrigues,35,-21.3275,-48.6327,2.68,Cândido Rodrigues,3510104
Cândido Sales,29,-15.4993,-41.2414,2.56,Cândido Sales,2906709
Candiota,43,-31.5516,-53.6773,2.07,Candiota,4304358
Candói,41,-25.5758,-52.0409,5.0,Candói,4104428
Canela,43,-29.356,-50.8119,2.93,Canela,4304408
Canelinha,42,-27.2616,-48.7658,5.82,Canelinha,4203709
Canguaretama,24,-6.37193,-35.1281,3.54,Canguaretama,2402204
Canguçu,43,-31.396,-52.6783,2.59,Canguçu,4304507
Canhoba,28,-10.1365,-36.9806,3.5,Canhoba,2801108
Canhotinho,26,-8.87652,-36.1979,4.45,Canhotinho,2603702
Canindé,23,-4.35162,-39.3155,4.9,Canindé,2302800
Canindé de São Francisco,28,-9.64882,-37.7923,2.65,Canindé de São Francisco,2801207
Canitar,35,-23.004,-49.7839,1.98,Canitar,3510153
Canoas,43,-29.9128,-51.1857,2.79,Canoas,4304606
Canoinhas,42,-26.1766,-50.395,10.0,Canoinhas,4203808
Cansanção,29,-10.6647,-39.4944,2.7,Cansanção,2906808
Cantá,14,2.60994,-60.6058,3.1,Cantá,1400175
Cantagalo,33,-21.9797,-42.3664,2.07,Cantagalo,3301108
Cantagalo,33,-21.9797,-42.3664,2.07,Cantagalo,4104451
Cantagalo,33,-21.9797,-42.3664,2.07,Cantagalo,3112059
Cantagalo,41,-25.3734,-52.1198,4.87,Cantagalo,3301108
Cantagalo,41,-25.3734,-52.1198,4.87,Cantagalo,4104451
Cantagalo,41,-25.3734,-52.1198,4.87,Cantagalo,3112059
Cantagalo,31,-18.5248,-42.6223,1.98,Cantagalo,3301108
Cantagalo,31,-18.5248,-42.6223,1.98,Cantagalo,4104451
Cantagalo,31,-18.5248,-42.6223,1.98,Cantagalo,3112059
Cantanhede,21,-3.63757,-44.383,2.88,Cantanhede,2102705
Canto do Buriti,22,-8.1111,-42.9517,3.83,Canto do Buriti,2202307
Canudos,29,-9.90014,-39.1471,2.88,Canudos,2906824
Canudos do Vale,43,-29.3271,-52.2374,2.99,Canudos do Vale,4304614
Canutama,13,-6.52582,-64.3953,6.48,Canutama,1300904
Capanema,15,-1.20529,-47.1778,3.46,Capanema,1502202
Capanema,15,-1.20529,-47.1778,3.46,Capanema,4104501
Capanema,41,-25.6691,-53.8055,3.74,Capanema,1502202
Capanema,41,-25.6691,-53.8055,3.74,Capanema,4104501
Capão Alto,42,-27.9389,-50.5098,10.0,Capão Alto,4203253
Capão Bonito,35,-24.0113,-48.3482,2.91,Capão Bonito,3510203
Capão Bonito do Sul,43,-28.1254,-51.3961,3.38,Capão Bonito do Sul,4304622
Capão da Canoa,43,-29.7642,-50.0282,2.71,Capão da Canoa,4304630
Capão do Cipó,43,-28.9312,-54.5558,3.14,Capão do Cipó,4304655
Capão do Leão,43,-31.7565,-52.4889,2.57,Capão do Leão,4304663
Caparaó,31,-20.5289,-41.9061,1.67,Caparaó,3112109
Capela,27,-9.41504,-36.0826,6.93,Capela,2701704
Capela,27,-9.41504,-36.0826,6.93,Capela,2801306
Capela,28,-10.5069,-37.0628,2.97,Capela,2701704
Capela,28,-10.5069,-37.0628,2.97,Capela,2801306
Capela de Santana,43,-29.6961,-51.328,2.36,Capela de Santana,4304689
Capela do Alto,35,-23.4685,-47.7388,2.82,Capela do Alto,3510302
Capela do Alto Alegre,29,-11.6658,-39.8349,2.54,Capela do Alto Alegre,2906857
Capela Nova,31,-20.9179,-43.622,1.78,Capela Nova,3112208
Capelinha,31,-17.6888,-42.5147,2.3,Capelinha,3112307
Capetinga,31,-20.6163,-47.0571,1.84,Capetinga,3112406
Capim,25,-6.91624,-35.1673,3.02,Capim,2504033
Capim Branco,31,-19.5471,-44.1304,2.42,Capim Branco,3112505
Capim Grosso,29,-11.3797,-40.0089,2.3,Capim Grosso,2906873
Capinópolis,31,-18.6862,-49.5706,3.2,Capinópolis,3112604
Capinzal,42,-27.3473,-51.6057,4.3,Capinzal,4203907
Capinzal do Norte,21,-4.7236,-44.328,3.17,Capinzal do Norte,2102754
Capistrano,23,-4.45569,-38.9048,5.93,Capistrano,2302909
Capitão,43,-29.2674,-51.9853,3.31,Capitão,4304697
Capitão Andrade,31,-19.0748,-41.8614,1.58,Capitão Andrade,3112653
Capitão de Campos,22,-4.457,-41.944,3.22,Capitão de Campos,2202406
Capitão Enéas,31,-16.3265,-43.7084,2.77,Capitão Enéas,3112703
Capitão Gervásio Oliveira,22,-8.49655,-41.814,3.4,Capitão Gervásio Oliveira,2202455
Capitão Leônidas Marques,41,-25.4816,-53.6112,4.07,Capitão Leônidas Marques,4104600
Capitão Poço,15,-1.74785,-47.0629,2.34,Capitão Poço,1502301
Capitólio,31,-20.6164,-46.0493,3.06,Capitólio,3112802
Capivari,35,-22.9951,-47.5071,2.68,Capivari,3510401
Capivari de Baixo,42,-28.4498,-48.9631,7.87,Capivari de Baixo,4203956
Capivari do Sul,43,-30.1383,-50.5152,3.22,Capivari do Sul,4304671
Capixaba,12,-10.566,-67.686,7.67,Capixaba,1200179
Capoeiras,26,-8.73423,-36.6306,4.12,Capoeiras,2603801
Caputira,31,-20.1703,-42.2683,1.87,Caputira,3112901
Caraá,43,-29.7869,-50.4316,3.0,Caraá,4304713
Caracaraí,14,1.82766,-61.1304,3.9,Caracaraí,1400209
Caracol,22,-9.27933,-43.329,3.51,Caracol,2202505
Caracol,22,-9.27933,-43.329,3.51,Caracol,5002803
Caracol,50,-22.011,-57.0277,2.56,Caracol,2202505
Caracol,50,-22.011,-57.0277,2.56,Caracol,5002803
Caraguatatuba,35,-23.6125,-45.4125,3.22,Caraguatatuba,3510500
Caraí,31,-17.1862,-41.7004,2.68,Caraí,3113008
Caraíbas,29,-14.7177,-41.2603,2.36,Caraíbas,2906899
Carambeí,41,-24.9152,-50.0986,2.74,Carambeí,4104659
Caranaíba,31,-20.8707,-43.7417,1.38,Caranaíba,3113107
Carandaí,31,-20.9566,-43.811,1.67,Carandaí,3113206
Carangola,31,-20.7343,-42.0313,2.27,Carangola,3113305
Carapebus,33,-22.1821,-41.663,2.54,Carapebus,3300936
Carapicuíba,35,-23.5235,-46.8407,3.26,Carapicuíba,3510609
Caratinga,31,-19.7868,-42.1292,1.93,Caratinga,3113404
Carauari,13,-4.88161,-66.9086,3.17,Carauari,1301001
Caraúbas,24,-5.78387,-37.5586,3.69,Caraúbas,2402303
Caraúbas,24,-5.78387,-37.5586,3.69,Caraúbas,2504074
Caraúbas,25,-7.72049,-36.492,3.02,Caraúbas,2402303
Caraúbas,25,-7.72049,-36.492,3.02,Caraúbas,2504074
Caraúbas do Piauí,22,-3.47525,-41.8425,3.11,Caraúbas do Piauí,2202539
Caravelas,29,-17.7268,-39.2597,2.48,Caravelas,2906907
Carazinho,43,-28.2958,-52.7933,3.02,Carazinho,4304705
Carbonita,31,-17.5255,-43.0137,2.62,Carbonita,3113503
Cardeal da Silva,29,-11.9472,-37.9469,2.39,Cardeal da Silva,2907004
Cardoso,35,-20.08,-49.9183,2.39,Cardoso,3510708
Cardoso Moreira,33,-21.4846,-41.6165,2.45,Cardoso Moreira,3301157
Careaçu,31,-22.0424,-45.696,1.93,Careaçu,3113602
Careiro,13,-3.76803,-60.369,3.16,Careiro,1301100
Careiro da Várzea,13,-3.314,-59.5557,3.97,Careiro da Várzea,1301159
Cariacica,32,-20.2632,-40.4165,3.6,Cariacica,3201308
Caridade,23,-4.22514,-39.1912,3.94,Caridade,2303006
Caridade do Piauí,22,-7.73435,-40.9848,3.63,Caridade do Piauí,2202554
Carinhanha,29,-14.2985,-43.7724,2.16,Carinhanha,2907103
Carira,28,-10.3524,-37.7002,2.68,Carira,2801405
Cariré,23,-3.94858,-40.476,3.02,Cariré,2303105
Cariri do Tocantins,17,-11.8881,-49.1609,3.54,Cariri do Tocantins,1703867
Caririaçu,23,-7.02808,-39.2828,3.86,Caririaçu,2303204
Cariús,23,-6.52428,-39.4916,3.37,Cariús,2303303
Carlinda,51,-9.94912,-55.8417,2.74,Carlinda,5102793
Carlópolis,41,-23.4269,-49.7235,3.02,Carlópolis,4104709
Carlos Barbosa,43,-29.2969,-51.5028,3.4,Carlos Barbosa,4304804
Carlos Chagas,31,-17.6973,-40.7723,1.78,Carlos Chagas,3113701
Carlos Gomes,43,-27.7167,-51.9121,3.89,Carlos Gomes,4304853
Carmésia,31,-19.0877,-43.1382,2.1,Carmésia,3113800
Carmo,33,-21.931,-42.6046,1.67,Carmo,3301207
Carmo da Cachoeira,31,-21.4633,-45.2201,1.78,Carmo da Cachoeira,3113909
Carmo da Mata,31,-20.5575,-44.8735,1.76,Carmo da Mata,3114006
Carmo de Minas,31,-22.1204,-45.1307,1.33,Carmo de Minas,3114105
Carmo do Cajuru,31,-20.1912,-44.7664,1.5,Carmo do Cajuru,3114204
Carmo do Paranaíba,31,-18.991,-46.3167,2.02,Carmo do Paranaíba,3114303
Carmo do Rio Claro,31,-20.9736,-46.1149,2.62,Carmo do Rio Claro,3114402
Carmo do Rio Verde,52,-15.3549,-49.708,2.74,Carmo do Rio Verde,5205000
Carmolândia,17,-7.03262,-48.3978,3.11,Carmolândia,1703883
Carmópolis,28,-10.6449,-36.9887,3.15,Carmópolis,2801504
Carmópolis de Minas,31,-20.5396,-44.6336,1.41,Carmópolis de Minas,3114501
Carnaíba,26,-7.79342,-37.7946,3.69,Carnaíba,2603900
Carnaúba dos Dantas,24,-6.55015,-36.5868,3.28,Carnaúba dos Dantas,2402402
Carnaubais,24,-5.34181,-36.8335,3.51,Carnaubais,2402501
Carnaubal,23,-4.15985,-40.9413,4.09,Carnaubal,2303402
Carnaubeira da Penha,26,-8.31799,-38.7512,3.4,Carnaubeira da Penha,2603926
Carneirinho,31,-19.6987,-50.6894,2.94,Carneirinho,3114550
Carneiros,27,-9.48476,-37.3773,3.17,Carneiros,2701803
Caroebe,14,0.884203,-59.6959,2.44,Caroebe,1400233
Carolina,21,-7.33584,-47.4634,3.14,Carolina,2102804
Carpina,26,-7.84566,-35.2514,3.99,Carpina,2604007
Carrancas,31,-21.4898,-44.6446,1.3,Carrancas,3114600
Carrapateira,25,-7.03414,-38.3399,3.31,Carrapateira,2504108
Carrasco Bonito,17,-5.31415,-48.0314,3.17,Carrasco Bonito,1703891
Caruaru,26,-8.28455,-35.9699,4.0,Caruaru,2604106
Carutapera,21,-1.19696,-46.0085,3.02,Carutapera,2102903
Carvalhópolis,31,-21.7735,-45.8421,1.96,Carvalhópolis,3114709
Carvalhos,31,-22.0,-44.4632,1.44,Carvalhos,3114808
Casa Branca,35,-21.7708,-47.0852,2.54,Casa Branca,3510807
Casa Grande,31,-20.7925,-43.9343,1.33,Casa Grande,3114907
Casa Nova,29,-9.16408,-40.974,3.51,Casa Nova,2907202
Casca,43,-28.5605,-51.9815,3.47,Casca,4304903
Cascalho Rico,31,-18.5772,-47.8716,3.46,Cascalho Rico,3115003
Cascavel,41,-24.9573,-53.459,6.74,Cascavel,4104808
Cascavel,41,-24.9573,-53.459,6.74,Cascavel,2303501
Cascavel,23,-4.12967,-38.2412,3.22,Cascavel,4104808
Cascavel,23,-4.12967,-38.2412,3.22,Cascavel,2303501
Caseara,17,-9.27612,-49.9521,2.99,Caseara,1703909
Caseiros,43,-28.2582,-51.6861,3.68,Caseiros,4304952
Casimiro de Abreu,33,-22.4812,-42.2066,2.7,Casimiro de Abreu,3301306
Casinhas,26,-7.74084,-35.7206,3.87,Casinhas,2604155
Casserengue,25,-6.77954,-35.8179,3.6,Casserengue,2504157
Cássia,31,-20.5831,-46.9201,1.84,Cássia,3115102
Cássia dos Coqueiros,35,-21.2801,-47.1643,2.39,Cássia dos Coqueiros,3510906
Cassilândia,50,-19.1179,-51.7313,2.25,Cassilândia,5002902
Castanhal,15,-1.29797,-47.9167,2.32,Castanhal,1502400
Castanheira,51,-11.1251,-58.6081,2.05,Castanheira,5102850
Castanheiras,11,-11.4253,-61.9482,7.73,Castanheiras,1100908
Castelândia,52,-18.0921,-50.203,2.25,Castelândia,5205059
Castelo,32,-20.6033,-41.2031,1.53,Castelo,3201407
Castelo do Piauí,22,-5.31869,-41.5499,3.08,Castelo do Piauí,2202604
Castilho,35,-20.8689,-51.4884,1.9,Castilho,3511003
Castro,41,-24.7891,-50.0108,2.41,Castro,4104907
Castro Alves,29,-12.7579,-39.4248,2.48,Castro Alves,2907301
Cataguases,31,-21.3924,-42.6896,1.55,Cataguases,3115300
Catalão,52,-18.1656,-47.944,2.82,Catalão,5205109
Catanduva,35,-21.1314,-48.977,2.77,Catanduva,3511102
Catanduvas,41,-25.2044,-53.1548,7.09,Catanduvas,4105003
Catanduvas,41,-25.2044,-53.1548,7.09,Catanduvas,4204004
Catanduvas,42,-27.069,-51.6602,5.3,Catanduvas,4105003
Catanduvas,42,-27.069,-51.6602,5.3,Catanduvas,4204004
Catarina,23,-6.12291,-39.8736,3.57,Catarina,2303600
Catas Altas,31,-20.0734,-43.4061,2.05,Catas Altas,3115359
Catas Altas da Noruega,31,-20.6901,-43.4939,1.93,Catas Altas da Noruega,3115409
Catende,26,-8.67509,-35.7024,5.29,Catende,2604205
Catiguá,35,-21.0519,-49.0616,2.68,Catiguá,3511201
Catingueira,25,-7.12008,-37.6064,3.2,Catingueira,2504207
Catolândia,29,-12.31,-44.8648,1.87,Catolândia,2907400
Catolé do Rocha,25,-6.34062,-37.747,3.94,Catolé do Rocha,2504306
Catu,29,-12.3513,-38.3791,2.05,Catu,2907509
Catuípe,43,-28.2554,-54.0132,2.97,Catuípe,4305009
Catuji,31,-17.3018,-41.5276,2.59,Catuji,3115458
Catunda,23,-4.64336,-40.2,3.46,Catunda,2303659
Caturaí,52,-16.4447,-49.4936,2.13,Caturaí,5205208
Caturama,29,-13.3239,-42.2904,2.68,Caturama,2907558
Caturité,25,-7.41659,-36.0306,3.5,Caturité,2504355
Catuti,31,-15.3616,-42.9627,2.39,Catuti,3115474
Caucaia,23,-3.72797,-38.6619,4.0,Caucaia,2303709
Cavalcante,52,-13.7976,-47.4566,3.8,Cavalcante,5205307
Caxambu,31,-21.9753,-44.9319,1.15,Caxambu,3115508
Caxambu do Sul,42,-27.1624,-52.8807,4.51,Caxambu do Sul,4204103
Caxias,21,-4.86505,-43.3617,3.06,Caxias,2103000
Caxias do Sul,43,-29.1629,-51.1792,3.41,Caxias do Sul,4305108
Caxingó,22,-3.41904,-41.8955,2.99,Caxingó,2202653
Ceará-Mirim,24,-5.64323,-35.4247,3.54,Ceará-Mirim,2402600
Cedral,21,-2.00027,-44.5281,3.34,Cedral,2103109
Cedral,21,-2.00027,-44.5281,3.34,Cedral,3511300
Cedral,35,-20.9009,-49.2664,2.65,Cedral,2103109
Cedral,35,-20.9009,-49.2664,2.65,Cedral,3511300
Cedro,23,-6.60034,-39.0609,3.31,Cedro,2303808
Cedro,23,-6.60034,-39.0609,3.31,Cedro,2604304
Cedro,26,-7.71179,-39.2367,3.37,Cedro,2303808
Cedro,26,-7.71179,-39.2367,3.37,Cedro,2604304
Cedro de São João,28,-10.2534,-36.8856,3.39,Cedro de São João,2801603
Cedro do Abaeté,31,-19.1458,-45.712,2.25,Cedro do Abaeté,3115607
Celso Ramos,42,-27.6327,-51.335,4.95,Celso Ramos,4204152
Centenário,43,-27.7615,-51.9984,3.02,Centenário,4305116
Centenário,43,-27.7615,-51.9984,3.02,Centenário,1704105
Centenário,17,-8.96103,-47.3304,3.08,Centenário,4305116
Centenário,17,-8.96103,-47.3304,3.08,Centenário,1704105
Centenário do Sul,41,-22.8188,-51.5973,2.42,Centenário do Sul,4105102
Central,29,-11.1376,-42.1116,3.66,Central,2907608
Central de Minas,31,-18.7612,-41.3143,1.47,Central de Minas,3115706
Central do Maranhão,21,-2.19831,-44.8254,2.92,Central do Maranhão,2103125
Centralina,31,-18.5852,-49.2014,3.4,Centralina,3115805
Centro do Guilherme,21,-2.44891,-46.0345,2.32,Centro do Guilherme,2103158
Centro Novo do Maranhão,21,-2.12696,-46.1228,3.02,Centro Novo do Maranhão,2103174
Cerejeiras,11,-13.187,-60.8168,4.29,Cerejeiras,1100056
Ceres,52,-15.3061,-49.6,2.77,Ceres,5205406
Cerqueira César,35,-23.038,-49.1655,2.25,Cerqueira César,3511409
Cerquilho,35,-23.1665,-47.7459,3.11,Cerquilho,3511508
Cerrito,43,-31.8419,-52.8004,2.15,Cerrito,4305124
Cerro Azul,41,-26.0891,-52.8691,5.82,Cerro Azul,4105201
Cerro Branco,43,-29.657,-52.9406,3.42,Cerro Branco,4305132
Cerro Corá,24,-6.03503,-36.3503,5.24,Cerro Corá,2402709
Cerro Grande,43,-27.6106,-53.1672,2.82,Cerro Grande,4305157
Cerro Grande do Sul,43,-30.5905,-51.7418,2.79,Cerro Grande do Sul,4305173
Cerro Largo,43,-28.1463,-54.7428,3.06,Cerro Largo,4305207
Cerro Negro,42,-27.7942,-50.8673,8.17,Cerro Negro,4204178
Cesário Lange,35,-23.226,-47.9545,3.17,Cesário Lange,3511607
Céu Azul,41,-25.1489,-53.8415,2.7,Céu Azul,4105300
Cezarina,52,-16.9718,-49.7758,1.96,Cezarina,5205455
Chã de Alegria,26,-8.00679,-35.204,3.96,Chã de Alegria,2604403
Chã Grande,26,-8.23827,-35.4571,3.42,Chã Grande,2604502
Chã Preta,27,-9.2556,-36.2983,5.16,Chã Preta,2701902
Chácara,31,-21.6733,-43.215,2.85,Chácara,3115904
Chalé,31,-20.0453,-41.6897,1.82,Chalé,3116001
Chapada,43,-28.0559,-53.0665,2.99,Chapada,4305306
Chapada da Natividade,17,-11.6175,-47.7486,2.62,Chapada da Natividade,1705102
Chapada de Areia,17,-10.1419,-49.1403,3.11,Chapada de Areia,1704600
Chapada do Norte,31,-17.0881,-42.5392,2.25,Chapada do Norte,3116100
Chapada dos Guimarães,51,-15.4643,-55.7499,3.26,Chapada dos Guimarães,5103007
Chapada Gaúcha,31,-15.3014,-45.6116,2.36,Chapada Gaúcha,3116159
Chapadão do Céu,52,-18.4073,-52.549,1.96,Chapadão do Céu,5205471
Chapadão do Lageado,42,-27.5905,-49.5539,10.0,Chapadão do Lageado,4204194
Chapadão do Sul,50,-18.788,-52.6263,2.3,Chapadão do Sul,5002951
Chapadinha,21,-3.73875,-43.3538,2.94,Chapadinha,2103208
Chapecó,42,-27.1004,-52.6152,6.62,Chapecó,4204202
Charqueada,35,-22.5096,-47.7755,1.87,Charqueada,3511706
Charqueadas,43,-29.9625,-51.6289,2.39,Charqueadas,4305355
Charrua,43,-27.9493,-52.015,3.22,Charrua,4305371
Chaval,23,-3.03571,-41.2435,3.63,Chaval,2303907
Chavantes,35,-23.0366,-49.7096,1.98,Chavantes,3557204
Chaves,15,-0.164154,-49.987,3.04,Chaves,1502509
Chiador,31,-21.9996,-43.0617,2.13,Chiador,3116209
Chiapetta,43,-27.923,-53.9419,3.11,Chiapetta,4305405
Chopinzinho,41,-25.8515,-52.5173,10.0,Chopinzinho,4105409
Choró,23,-4.83906,-39.1344,3.66,Choró,2303931
Chorozinho,23,-4.28873,-38.4986,3.33,Chorozinho,2303956
Chorrochó,29,-8.9695,-39.0979,2.85,Chorrochó,2907707
Chuí,43,-33.6866,-53.4594,2.13,Chuí,4305439
Chupinguaia,11,-12.5611,-60.8877,4.79,Chupinguaia,1100924
Chuvisca,43,-30.7504,-51.9737,2.56,Chuvisca,4305447
Cianorte,41,-23.6599,-52.6054,2.77,Cianorte,4105508
Cícero Dantas,29,-10.5897,-38.3794,2.39,Cícero Dantas,2907806
Cidade Gaúcha,41,-23.3772,-52.9436,2.74,Cidade Gaúcha,4105607
Cidade Ocidental,52,-16.0765,-47.9252,3.89,Cidade Ocidental,5205497
Cidelândia,21,-5.17465,-47.7781,2.82,Cidelândia,2103257
Cidreira,43,-30.1604,-50.2337,3.07,Cidreira,4305454
Cipó,29,-11.1032,-38.5179,2.88,Cipó,2907905
Cipotânea,31,-20.9026,-43.3629,2.79,Cipotânea,3116308
Ciríaco,43,-28.3419,-51.8741,3.72,Ciríaco,4305504
Claraval,31,-20.397,-47.2768,1.78,Claraval,3116407
Claro dos Poções,31,-17.082,-44.2061,3.17,Claro dos Poções,3116506
Cláudia,51,-11.5075,-54.8835,2.59,Cláudia,5103056
Cláudio,31,-20.4437,-44.7673,1.76,Cláudio,3116605
Clementina,35,-21.5604,-50.4525,2.02,Clementina,3511904
Clevelândia,41,-26.4043,-52.3508,10.0,Clevelândia,4105706
Coaraci,29,-14.637,-39.5556,2.54,Coaraci,2908002
Coari,13,-4.09412,-63.1441,2.45,Coari,1301209
Cocal,22,-3.47279,-41.5546,2.68,Cocal,2202703
Cocal de Telha,22,-4.5571,-41.9587,3.22,Cocal de Telha,2202711
Cocal do Sul,42,-28.5986,-49.3335,8.23,Cocal do Sul,4204251
Cocal dos Alves,22,-3.62047,-41.4402,2.85,Cocal dos Alves,2202729
Cocalinho,51,-14.3903,-51.0001,2.22,Cocalinho,5103106
Cocalzinho de Goiás,52,-15.7914,-48.7747,3.71,Cocalzinho de Goiás,5205513
Cocos,29,-14.1814,-44.5352,2.77,Cocos,2908101
Codajás,13,-3.83053,-62.0658,2.32,Codajás,1301308
Codó,21,-4.45562,-43.8924,3.22,Codó,2103307
Coelho Neto,21,-4.25245,-43.0108,3.22,Coelho Neto,2103406
Coimbra,31,-20.8535,-42.8008,4.06,Coimbra,3116704
Coité do Nóia,27,-9.63348,-36.5845,4.92,Coité do Nóia,2702009
Coivaras,22,-5.09224,-42.208,3.2,Coivaras,2202737
Colares,15,-0.936423,-48.2803,2.9,Colares,1502608
Colatina,32,-19.5493,-40.6269,2.16,Colatina,3201506
Colíder,51,-10.8135,-55.461,2.65,Colíder,5103205
Colina,35,-20.7114,-48.5387,2.45,Colina,3512001
Colinas,43,-29.3948,-51.8556,3.09,Colinas,4305587
Colinas,43,-29.3948,-51.8556,3.09,Colinas,2103505
Colinas,21,-6.03199,-44.2543,3.42,Colinas,4305587
Colinas,21,-6.03199,-44.2543,3.42,Colinas,2103505
Colinas do Sul,52,-14.1528,-48.076,1.44,Colinas do Sul,5205521
Colinas do Tocantins,17,-8.05764,-48.4757,3.8,Colinas do Tocantins,1705508
Colméia,17,-8.72463,-48.7638,3.17,Colméia,1716703
Colniza,51,-9.46121,-59.2252,1.73,Colniza,5103254
Colômbia,35,-20.1768,-48.6865,2.05,Colômbia,3512100
Colombo,41,-25.2925,-49.2262,3.37,Colombo,4105805
Colônia do Gurguéia,22,-8.1837,-43.794,3.06,Colônia do Gurguéia,2202752
Colônia do Piauí,22,-7.22651,-42.1756,3.63,Colônia do Piauí,2202778
Colônia Leopoldina,27,-8.91806,-35.7214,5.67,Colônia Leopoldina,2702108
Colorado,43,-28.5258,-52.9928,2.82,Colorado,4305603
Colorado,43,-28.5258,-52.9928,2.82,Colorado,4105904
Colorado,41,-22.8374,-51.9743,2.62,Colorado,4305603
Colorado,41,-22.8374,-51.9743,2.62,Colorado,4105904
Colorado do Oeste,11,-13.1174,-60.5454,3.64,Colorado do Oeste,1100064
Coluna,31,-18.2311,-42.8352,2.07,Coluna,3116803
Combinado,17,-12.7917,-46.5388,2.34,Combinado,1705557
Comendador Gomes,31,-19.6973,-49.0789,3.06,Comendador Gomes,3116902
Comendador Levy Gasparian,33,-22.0404,-43.214,2.1,Comendador Levy Gasparian,3300951
Comercinho,31,-16.2963,-41.7945,2.42,Comercinho,3117009
Comodoro,51,-13.6614,-59.7848,3.63,Comodoro,5103304
Conceição,25,-7.55106,-38.5014,3.94,Conceição,2504405
Conceição da Aparecida,31,-21.096,-46.2049,2.45,Conceição da Aparecida,3117108
Conceição da Barra,32,-18.5883,-39.7362,2.5,Conceição da Barra,3201605
Conceição da Barra de Minas,31,-21.1316,-44.4729,1.1,Conceição da Barra de Minas,3115201
Conceição da Feira,29,-12.5078,-38.9978,2.25,Conceição da Feira,2908200
Conceição das Alagoas,31,-19.9172,-48.3839,2.68,Conceição das Alagoas,3117306
Conceição das Pedras,31,-22.1576,-45.4562,1.67,Conceição das Pedras,3117207
Conceição de Ipanema,31,-19.9326,-41.6908,2.05,Conceição de Ipanema,3117405
Conceição de Macabu,33,-22.0834,-41.8719,2.88,Conceição de Macabu,3301405
Conceição do Almeida,29,-12.7836,-39.1715,2.36,Conceição do Almeida,2908309
Conceição do Araguaia,15,-8.26136,-49.2689,3.31,Conceição do Araguaia,1502707
Conceição do Canindé,22,-7.87638,-41.5942,3.74,Conceição do Canindé,2202802
Conceição do Castelo,32,-20.3639,-41.2417,2.42,Conceição do Castelo,3201704
Conceição do Coité,29,-11.56,-39.2808,2.68,Conceição do Coité,2908408
Conceição do Jacuípe,29,-12.3268,-38.7684,2.39,Conceição do Jacuípe,2908507
Conceição do Lago-Açu,21,-3.85142,-44.8895,3.2,Conceição do Lago-Açu,2103554
Conceição do Mato Dentro,31,-19.0344,-43.4221,2.1,Conceição do Mato Dentro,3117504
Conceição do Pará,31,-19.7456,-44.8945,1.93,Conceição do Pará,3117603
Conceição do Rio Verde,31,-21.8778,-45.087,1.38,Conceição do Rio Verde,3117702
Conceição do Tocantins,17,-12.2209,-47.2951,2.59,Conceição do Tocantins,1705607
Conceição dos Ouros,31,-22.4078,-45.7996,1.38,Conceição dos Ouros,3117801
Conchal,35,-22.3375,-47.1729,2.25,Conchal,3512209
Conchas,35,-23.0154,-48.0134,2.82,Conchas,3512308
Concórdia,42,-27.2335,-52.026,3.93,Concórdia,4204301
Concórdia do Pará,15,-1.99238,-47.9422,2.16,Concórdia do Pará,1502756
Condado,25,-6.89831,-37.606,3.11,Condado,2504504
Condado,25,-6.89831,-37.606,3.11,Condado,2604601
Condado,26,-7.58787,-35.0999,3.77,Condado,2504504
Condado,26,-7.58787,-35.0999,3.77,Condado,2604601
Conde,25,-7.25746,-34.8999,4.28,Conde,2504603
Conde,25,-7.25746,-34.8999,4.28,Conde,2908606
Conde,29,-11.8179,-37.6131,2.59,Conde,2504603
Conde,29,-11.8179,-37.6131,2.59,Conde,2908606
Condeúba,29,-14.9022,-41.9718,2.54,Condeúba,2908705
Condor,43,-28.2075,-53.4905,2.91,Condor,4305702
Cônego Marinho,31,-15.2892,-44.4181,2.97,Cônego Marinho,3117836
Confins,31,-19.6282,-43.9931,1.93,Confins,3117876
Confresa,51,-10.6437,-51.5699,2.59,Confresa,5103353
Congo,25,-7.79078,-36.6581,3.06,Congo,2504702
Congonhal,31,-22.1488,-46.043,1.41,Congonhal,3117900
Congonhas,31,-20.4958,-43.851,1.1,Congonhas,3118007
Congonhas do Norte,31,-18.8021,-43.6767,2.59,Congonhas do Norte,3118106
Congonhinhas,41,-23.5493,-50.5569,2.99,Congonhinhas,4106001
Conquista,31,-19.9312,-47.5492,2.54,Conquista,3118205
Conquista D'Oeste,51,-14.5381,-59.5444,3.92,Conquista D'Oeste,5103361
Conselheiro Lafaiete,31,-20.6634,-43.7846,1.24,Conselheiro Lafaiete,3118304
Conselheiro Mairinck,41,-23.623,-50.1707,1.78,Conselheiro Mairinck,4106100
Conselheiro Pena,31,-19.1789,-41.4736,1.76,Conselheiro Pena,3118403
Consolação,31,-22.5493,-45.9255,1.9,Consolação,3118502
Constantina,43,-27.732,-52.9938,2.78,Constantina,4305801
Contagem,31,-19.9321,-44.0539,2.56,Contagem,3118601
Contenda,41,-25.6788,-49.535,3.21,Contenda,4106209
Contendas do Sincorá,29,-13.7537,-41.048,2.16,Contendas do Sincorá,2908804
Coqueiral,31,-21.1858,-45.4366,1.78,Coqueiral,3118700
Coqueiro Baixo,43,-29.1802,-52.0942,3.46,Coqueiro Baixo,4305835
Coqueiro Seco,27,-9.63715,-35.7994,7.9,Coqueiro Seco,2702207
Coqueiros do Sul,43,-28.1194,-52.7842,3.17,Coqueiros do Sul,4305850
Coração de Jesus,31,-16.6841,-44.3635,2.62,Coração de Jesus,3118809
Coração de Maria,29,-12.2333,-38.7487,2.39,Coração de Maria,2908903
Corbélia,41,-24.7971,-53.3006,3.66,Corbélia,4106308
Cordeiro,33,-22.0267,-42.3648,2.3,Cordeiro,3301504
Cordeirópolis,35,-22.4778,-47.4519,2.05,Cordeirópolis,3512407
Cordeiros,29,-15.0356,-41.9308,2.42,Cordeiros,2909000
Cordilheira Alta,42,-26.9844,-52.6056,5.28,Cordilheira Alta,4204350
Cordisburgo,31,-19.1224,-44.3224,2.36,Cordisburgo,3118908
Cordislândia,31,-21.7891,-45.6999,1.84,Cordislândia,3119005
Coreaú,23,-3.5415,-40.6587,4.32,Coreaú,2304004
Coremas,25,-7.00712,-37.9346,2.94,Coremas,2504801
Corguinho,50,-19.8243,-54.8281,3.02,Corguinho,5003108
Coribe,29,-13.8232,-44.4586,2.88,Coribe,2909109
Corinto,31,-18.369,-44.4542,1.98,Corinto,3119104
Cornélio Procópio,41,-23.1829,-50.6498,1.98,Cornélio Procópio,4106407
Coroaci,31,-18.6156,-42.2791,2.07,Coroaci,3119203
Coroados,35,-21.3521,-50.2859,2.19,Coroados,3512506
Coroatá,21,-4.13442,-44.1244,3.28,Coroatá,2103604
Coromandel,31,-18.4734,-47.1933,2.85,Coromandel,3119302
Coronel Barros,43,-28.3921,-54.0686,2.82,Coronel Barros,4305871
Coronel Bicaco,43,-27.7197,-53.7022,2.82,Coronel Bicaco,4305900
Coronel Domingos Soares,41,-26.2277,-52.0356,10.0,Coronel Domingos Soares,4106456
Coronel Ezequiel,24,-6.3748,-36.2223,3.57,Coronel Ezequiel,2402808
Coronel Fabriciano,31,-19.5179,-42.6276,2.16,Coronel Fabriciano,3119401
Coronel Freitas,42,-26.9057,-52.7011,4.75,Coronel Freitas,4204400
Coronel João Pessoa,24,-6.24974,-38.4441,4.43,Coronel João Pessoa,2402907
Coronel João Sá,29,-10.2847,-37.9198,2.48,Coronel João Sá,2909208
Coronel José Dias,22,-8.81397,-42.5232,3.66,Coronel José Dias,2202851
Coronel Macedo,35,-23.6261,-49.31,2.68,Coronel Macedo,3512605
Coronel Martins,42,-26.511,-52.6694,5.55,Coronel Martins,4204459
Coronel Murta,31,-16.6148,-42.184,2.59,Coronel Murta,3119500
Coronel Pacheco,31,-21.5898,-43.256,2.48,Coronel Pacheco,3119609
Coronel Pilar,43,-29.2695,-51.6847,2.59,Coronel Pilar,4305934
Coronel Sapucaia,50,-23.2724,-55.5278,2.76,Coronel Sapucaia,5003157
Coronel Vivida,41,-25.9767,-52.5641,7.21,Coronel Vivida,4106506
Coronel Xavier Chaves,31,-21.0277,-44.2206,1.35,Coronel Xavier Chaves,3119708
Córrego Danta,31,-19.8198,-45.9032,2.05,Córrego Danta,3119807
Córrego do Bom Jesus,31,-22.6269,-46.0241,1.9,Córrego do Bom Jesus,3119906
Córrego do Ouro,52,-16.2918,-50.5503,1.9,Córrego do Ouro,5205703
Córrego Fundo,31,-20.4474,-45.5617,2.27,Córrego Fundo,3119955
Córrego Novo,31,-19.8361,-42.3988,2.1,Córrego Novo,3120003
Correia Pinto,42,-27.5877,-50.3614,10.0,Correia Pinto,4204558
Corrente,22,-10.4333,-45.1633,2.5,Corrente,2202901
Correntes,26,-9.12117,-36.3244,4.04,Correntes,2604700
Correntina,29,-13.3477,-44.6333,2.59,Correntina,2909307
Cortês,26,-8.47443,-35.5468,7.26,Cortês,2604809
Corumbá,50,-19.0077,-57.651,3.8,Corumbá,5003207
Corumbá de Goiás,52,-15.9245,-48.8117,3.31,Corumbá de Goiás,5205802
Corumbaíba,52,-18.1415,-48.5626,2.88,Corumbaíba,5205901
Corumbataí,35,-22.2213,-47.6215,2.19,Corumbataí,3512704
Corumbataí do Sul,41,-24.101,-52.1177,2.3,Corumbataí do Sul,4106555
Corumbiara,11,-12.9551,-60.8947,4.28,Corumbiara,1100072
Corupá,42,-26.4246,-49.246,3.9,Corupá,4204509
Coruripe,27,-10.1276,-36.1717,6.2,Coruripe,2702306
Cosmópolis,35,-22.6419,-47.1926,2.62,Cosmópolis,3512803
Cosmorama,35,-20.4755,-49.7827,2.77,Cosmorama,3512902
Costa Marques,11,-12.4367,-64.228,7.45,Costa Marques,1100080
Costa Rica,50,-18.5432,-53.1287,1.73,Costa Rica,5003256
Cotegipe,29,-12.0228,-44.2566,2.13,Cotegipe,2909406
Cotia,35,-23.6022,-46.919,3.11,Cotia,3513009
Cotiporã,43,-28.9891,-51.6971,3.04,Cotiporã,4305959
Cotriguaçu,51,-9.85656,-58.4192,1.44,Cotriguaçu,5103379
Couto de Magalhães de Minas,31,-18.0727,-43.4648,2.3,Couto de Magalhães de Minas,3120102
Couto Magalhães,17,-8.28411,-49.2473,3.31,Couto Magalhães,1706001
Coxilha,43,-28.128,-52.3023,3.28,Coxilha,4305975
Coxim,50,-18.5013,-54.751,3.22,Coxim,5003306
Coxixola,25,-7.62365,-36.6064,3.16,Coxixola,2504850
Craíbas,27,-9.6178,-36.7697,4.27,Craíbas,2702355
Crateús,23,-5.16768,-40.6536,3.28,Crateús,2304103
Crato,23,-7.2153,-39.4103,4.0,Crato,2304202
Cravinhos,35,-21.338,-47.7324,2.16,Cravinhos,3513108
Cravolândia,29,-13.3531,-39.8031,2.48,Cravolândia,2909505
Criciúma,42,-28.6723,-49.3729,8.23,Criciúma,4204608
Crisólita,31,-17.2381,-40.9184,1.67,Crisólita,3120151
Crisópolis,29,-11.5059,-38.1515,2.54,Crisópolis,2909604
Crissiumal,43,-27.4999,-54.0994,2.77,Crissiumal,4306007
Cristais,31,-20.8733,-45.5167,2.07,Cristais,3120201
Cristais Paulista,35,-20.4036,-47.4209,2.48,Cristais Paulista,3513207
Cristal,43,-31.0046,-52.0436,2.42,Cristal,4306056
Cristal do Sul,43,-27.452,-53.2422,2.95,Cristal do Sul,4306072
Cristalândia,17,-10.5985,-49.1942,2.91,Cristalândia,1706100
Cristalândia do Piauí,22,-10.6443,-45.1893,3.51,Cristalândia do Piauí,2203008
Cristália,31,-16.716,-42.8571,3.06,Cristália,3120300
Cristalina,52,-16.7676,-47.6131,3.17,Cristalina,5206206
Cristiano Otoni,31,-20.8324,-43.8166,1.47,Cristiano Otoni,3120409
Cristianópolis,52,-17.1987,-48.7034,3.17,Cristianópolis,5206305
Cristina,31,-22.208,-45.2673,1.44,Cristina,3120508
Cristinápolis,28,-11.4668,-37.7585,2.39,Cristinápolis,2801702
Cristino Castro,22,-8.82273,-44.223,2.79,Cristino Castro,2203107
Cristópolis,29,-12.2249,-44.4214,2.27,Cristópolis,2909703
Crixás,52,-14.5412,-49.974,2.94,Crixás,5206404
Crixás do Tocantins,17,-11.0994,-48.9152,3.2,Crixás do Tocantins,1706258
Croatá,23,-4.40481,-40.9022,4.26,Croatá,2304236
Cromínia,52,-17.2883,-49.3798,2.79,Cromínia,5206503
Crucilândia,31,-20.3923,-44.3334,1.73,Crucilândia,3120607
Cruz,23,-2.91813,-40.176,3.74,Cruz,2304251
Cruz Alta,43,-28.645,-53.6048,3.26,Cruz Alta,4306106
Cruz das Almas,29,-12.6675,-39.1008,2.3,Cruz das Almas,2909802
Cruz do Espírito Santo,25,-7.13902,-35.0857,3.87,Cruz do Espírito Santo,2504900
Cruz Machado,41,-26.0166,-51.343,5.59,Cruz Machado,4106803
Cruzália,35,-22.7373,-50.7909,1.35,Cruzália,3513306
Cruzaltense,43,-27.6672,-52.6522,3.85,Cruzaltense,4306130
Cruzeiro,35,-22.5728,-44.969,2.3,Cruzeiro,3513405
Cruzeiro da Fortaleza,31,-18.944,-46.6669,2.65,Cruzeiro da Fortaleza,3120706
Cruzeiro do Iguaçu,41,-25.6192,-53.1285,3.32,Cruzeiro do Iguaçu,4106571
Cruzeiro do Oeste,41,-23.7799,-53.0774,2.91,Cruzeiro do Oeste,4106605
Cruzeiro do Sul,41,-22.9624,-52.1622,2.77,Cruzeiro do Sul,4106704
Cruzeiro do Sul,41,-22.9624,-52.1622,2.77,Cruzeiro do Sul,4306205
Cruzeiro do Sul,41,-22.9624,-52.1622,2.77,Cruzeiro do Sul,1200203
Cruzeiro do Sul,43,-29.5148,-51.9928,2.67,Cruzeiro do Sul,4106704
Cruzeiro do Sul,43,-29.5148,-51.9928,2.67,Cruzeiro do Sul,4306205
Cruzeiro do Sul,43,-29.5148,-51.9928,2.67,Cruzeiro do Sul,1200203
Cruzeiro do Sul,12,-7.62762,-72.6756,3.79,Cruzeiro do Sul,4106704
Cruzeiro do Sul,12,-7.62762,-72.6756,3.79,Cruzeiro do Sul,4306205
Cruzeiro do Sul,12,-7.62762,-72.6756,3.79,Cruzeiro do Sul,1200203
Cruzeta,24,-6.40894,-36.7782,3.46,Cruzeta,2403004
Cruzília,31,-21.84,-44.8067,1.3,Cruzília,3120805
Cruzmaltina,41,-24.0132,-51.4563,1.9,Cruzmaltina,4106852
Cubatão,35,-23.8911,-46.424,2.54,Cubatão,3513504
Cubati,25,-6.86686,-36.3619,3.92,Cubati,2505006
Cuiabá,51,-15.601,-56.0974,3.22,Cuiabá,5103403
Cuité,25,-6.47647,-36.1515,3.57,Cuité,2505105
Cuité de Mamanguape,25,-6.91292,-35.2502,3.63,Cuité de Mamanguape,2505238
Cuitegi,25,-6.89058,-35.5215,4.79,Cuitegi,2505204
Cujubim,11,-9.36065,-62.5846,2.16,Cujubim,1100940
Cumari,52,-18.2644,-48.1511,2.79,Cumari,5206602
Cumaru,26,-8.00827,-35.6957,3.19,Cumaru,2604908
Cumaru do Norte,15,-7.81097,-50.7698,3.51,Cumaru do Norte,1502764
Cumbe,28,-10.352,-37.1846,2.82,Cumbe,2801900
Cunha,35,-23.0731,-44.9576,2.5,Cunha,3513603
Cunha Porã,42,-26.895,-53.1662,6.44,Cunha Porã,4204707
Cunhataí,42,-26.9709,-53.0895,5.29,Cunhataí,4204756
Cuparaque,31,-18.9648,-41.0986,1.82,Cuparaque,3120839
Cupira,26,-8.62432,-35.9518,6.37,Cupira,2605004
Curaçá,29,-8.98458,-39.8997,2.91,Curaçá,2909901
Curimatá,22,-10.0326,-44.3002,3.63,Curimatá,2203206
Curionópolis,15,-6.09965,-49.6068,2.94,Curionópolis,1502772
Curitiba,41,-25.4195,-49.2646,3.14,Curitiba,4106902
Curitibanos,42,-27.2824,-50.5816,10.0,Curitibanos,4204806
Curiúva,41,-24.0362,-50.4576,2.25,Curiúva,4107009
Currais,22,-9.01175,-44.4062,3.02,Currais,2203230
Currais Novos,24,-6.25484,-36.5146,3.49,Currais Novos,2403103
Curral de Cima,25,-6.72325,-35.2639,3.12,Curral de Cima,2505279
Curral de Dentro,31,-15.9327,-41.8557,2.65,Curral de Dentro,3120870
Curral Novo do Piauí,22,-7.8313,-40.8957,3.83,Curral Novo do Piauí,2203271
Curral Velho,25,-7.53075,-38.1962,3.14,Curral Velho,2505303
Curralinho,15,-1.81179,-49.7952,2.54,Curralinho,1502806
Curralinhos,22,-5.60825,-42.8376,2.97,Curralinhos,2203255
Curuá,15,-1.88775,-55.1168,2.42,Curuá,1502855
Curuçá,15,-0.733214,-47.8515,3.26,Curuçá,1502905
Cururupu,21,-1.81475,-44.8644,3.33,Cururupu,2103703
Curvelândia,51,-15.6084,-57.9133,3.14,Curvelândia,5103437
Curvelo,31,-18.7527,-44.4303,1.98,Curvelo,3120904
Custódia,26,-8.08546,-37.6443,2.94,Custódia,2605103
Cutias,16,0.970761,-50.8005,2.77,Cutias,1600212
Damianópolis,52,-14.5604,-46.178,2.42,Damianópolis,5206701
Damião,25,-6.63161,-35.9101,3.4,Damião,2505352
Damolândia,52,-16.2544,-49.3631,2.59,Damolândia,5206800
Darcinópolis,17,-6.71591,-47.7597,3.6,Darcinópolis,1706506
Dário Meira,29,-14.4229,-39.9031,1.9,Dário Meira,2910008
Datas,31,-18.4478,-43.6591,2.34,Datas,3121001
David Canabarro,43,-28.3849,-51.8482,3.72,David Canabarro,4306304
Davinópolis,21,-5.54637,-47.4217,2.88,Davinópolis,2103752
Davinópolis,21,-5.54637,-47.4217,2.88,Davinópolis,5206909
Davinópolis,52,-18.1501,-47.5568,3.17,Davinópolis,2103752
Davinópolis,52,-18.1501,-47.5568,3.17,Davinópolis,5206909
Delfim Moreira,31,-22.5036,-45.2792,1.47,Delfim Moreira,3121100
Delfinópolis,31,-20.3468,-46.8456,2.13,Delfinópolis,3121209
Delmiro Gouveia,27,-9.38534,-37.9987,2.48,Delmiro Gouveia,2702405
Delta,31,-19.9721,-47.7841,2.25,Delta,3121258
Demerval Lobão,22,-5.35875,-42.6776,3.28,Demerval Lobão,2203305
Denise,51,-14.7324,-57.0583,2.54,Denise,5103452
Deodápolis,50,-22.2763,-54.1682,3.06,Deodápolis,5003454
Deputado Irapuan Pinheiro,23,-5.91485,-39.257,3.26,Deputado Irapuan Pinheiro,2304269
Derrubadas,43,-27.2642,-53.8645,2.89,Derrubadas,4306320
Descalvado,35,-21.9002,-47.6181,1.73,Descalvado,3513702
Descanso,42,-26.827,-53.5034,4.09,Descanso,4204905
Descoberto,31,-21.46,-42.9618,2.34,Descoberto,3121308
